[{"city":"ADAK","lat":"51.9","long":"-176.67"},{"city":"AKIACHAK","lat":"60.87","long":"-161.42"},{"city":"AKIAK","lat":"60.9","long":"-161.29"},{"city":"AKUTAN","lat":"54.13","long":"-165.88"},{"city":"ALAKANUK","lat":"62.44","long":"-164.38"},{"city":"ALEKNAGIK","lat":"59.24","long":"-158.62"},{"city":"ALLAKAKET","lat":"66.57","long":"-152.95"},{"city":"AMBLER","lat":"67.08","long":"-157.9"},{"city":"ANAKTUVUK PASS","lat":"68.15","long":"-151.71"},{"city":"ANCHOR POINT","lat":"59.82","long":"-151.59"},{"city":"ANCHORAGE","lat":"61.22","long":"-149.85"},{"city":"ANDERSON","lat":"64.2","long":"-148.97"},{"city":"ANGOON","lat":"57.44","long":"-134.48"},{"city":"ANIAK","lat":"61.2","long":"-158.6"},{"city":"ANVIK","lat":"62.63","long":"-160.2"},{"city":"ARCTIC VILLAGE","lat":"68.09","long":"-145.57"},{"city":"ATKA","lat":"52.23","long":"-174.16"},{"city":"ATQASUK","lat":"70.48","long":"-157.39"},{"city":"AUKE BAY","lat":"58.3","long":"-134.42"},{"city":"BARROW","lat":"71.28","long":"-156.78"},{"city":"BEAVER","lat":"66.32","long":"-146.77"},{"city":"BETHEL","lat":"60.93","long":"-161.8"},{"city":"BETTLES FIELD","lat":"67.24","long":"-152.27"},{"city":"BIG LAKE","lat":"61.46","long":"-150.09"},{"city":"BREVIG MISSION","lat":"65.44","long":"-166.56"},{"city":"BUCKLAND","lat":"65.97","long":"-161.13"},{"city":"CANTWELL","lat":"63.33","long":"-148.33"},{"city":"CENTRAL","lat":"65.47","long":"-145.19"},{"city":"CHALKYITSIK","lat":"66.64","long":"-143.78"},{"city":"CHEFORNAK","lat":"60.15","long":"-164.06"},{"city":"CHEVAK","lat":"61.56","long":"-165.38"},{"city":"CHICKEN","lat":"63.86","long":"-142.12"},{"city":"CHIGNIK","lat":"56.3","long":"-158.36"},{"city":"CHIGNIK LAGOON","lat":"56.3","long":"-158.49"},{"city":"CHIGNIK LAKE","lat":"56.23","long":"-158.74"},{"city":"CHITINA","lat":"61.45","long":"-143.15"},{"city":"CHUGIAK","lat":"61.41","long":"-149.17"},{"city":"CIRCLE","lat":"65.79","long":"-144.2"},{"city":"CLAM GULCH","lat":"60.21","long":"-151.4"},{"city":"CLARKS POINT","lat":"58.83","long":"-158.53"},{"city":"CLEAR","lat":"64.28","long":"-149.19"},{"city":"COFFMAN COVE","lat":"55.97","long":"-132.74"},{"city":"COLD BAY","lat":"55.92","long":"-160.29"},{"city":"COOPER LANDING","lat":"60.49","long":"-149.82"},{"city":"COPPER CENTER","lat":"61.68","long":"-145.14"},{"city":"CORDOVA","lat":"60.79","long":"-145.61"},{"city":"CRAIG","lat":"55.46","long":"-132.83"},{"city":"CROOKED CREEK","lat":"61.86","long":"-157.99"},{"city":"DEERING","lat":"66.07","long":"-162.73"},{"city":"DELTA JUNCTION","lat":"63.7","long":"-144.89"},{"city":"DENALI NATIONAL PARK","lat":"63.64","long":"-148.81"},{"city":"DILLINGHAM","lat":"58.82","long":"-157.86"},{"city":"DOUGLAS","lat":"58.23","long":"-134.38"},{"city":"DUTCH HARBOR","lat":"53.89","long":"-166.53"},{"city":"EAGLE","lat":"64.43","long":"-141.22"},{"city":"EAGLE RIVER","lat":"61.21","long":"-149.25"},{"city":"EEK","lat":"60.19","long":"-162.13"},{"city":"EGEGIK","lat":"58.37","long":"-156.8"},{"city":"EIELSON AFB","lat":"64.67","long":"-147.04"},{"city":"EKWOK","lat":"59.35","long":"-157.48"},{"city":"ELFIN COVE","lat":"58.1","long":"-136.29"},{"city":"ELIM","lat":"64.63","long":"-162.34"},{"city":"EMMONAK","lat":"62.69","long":"-162.96"},{"city":"ESTER","lat":"64.85","long":"-148.02"},{"city":"FAIRBANKS","lat":"64.81","long":"-147.72"},{"city":"FALSE PASS","lat":"54.83","long":"-163.65"},{"city":"FORT GREELY","lat":"64.04","long":"-145.73"},{"city":"FORT WAINWRIGHT","lat":"64.81","long":"-147.62"},{"city":"FORT YUKON","lat":"66.56","long":"-145.25"},{"city":"GAKONA","lat":"62.41","long":"-143.41"},{"city":"GALENA","lat":"64.74","long":"-156.85"},{"city":"GAMBELL","lat":"63.75","long":"-171.69"},{"city":"GIRDWOOD","lat":"60.9","long":"-148.91"},{"city":"GLENNALLEN","lat":"62.1","long":"-145.53"},{"city":"GOODNEWS BAY","lat":"59.19","long":"-161.71"},{"city":"GRAYLING","lat":"62.89","long":"-160.1"},{"city":"GUSTAVUS","lat":"58.42","long":"-135.78"},{"city":"HAINES","lat":"59.16","long":"-135.86"},{"city":"HEALY","lat":"64.01","long":"-148.35"},{"city":"HOLY CROSS","lat":"62.18","long":"-159.84"},{"city":"HOMER","lat":"59.4","long":"-151.32"},{"city":"HOONAH","lat":"58.08","long":"-135.43"},{"city":"HOOPER BAY","lat":"61.6","long":"-165.74"},{"city":"HOPE","lat":"60.84","long":"-149.4"},{"city":"HOUSTON","lat":"61.66","long":"-149.68"},{"city":"HUGHES","lat":"66.05","long":"-154.24"},{"city":"HUSLIA","lat":"65.69","long":"-156.35"},{"city":"HYDABURG","lat":"55.2","long":"-132.81"},{"city":"HYDER","lat":"55.97","long":"-130.04"},{"city":"ILIAMNA","lat":"59.52","long":"-154.4"},{"city":"INDIAN","lat":"61","long":"-149.43"},{"city":"JBER","lat":"61.31","long":"-149.65"},{"city":"JUNEAU","lat":"58.58","long":"-134.77"},{"city":"KAKE","lat":"56.79","long":"-134.19"},{"city":"KAKTOVIK","lat":"70.12","long":"-143.66"},{"city":"KALSKAG","lat":"61.61","long":"-160.2"},{"city":"KALTAG","lat":"63.81","long":"-159.67"},{"city":"KARLUK","lat":"57.6","long":"-154.33"},{"city":"KASIGLUK","lat":"60.87","long":"-162.54"},{"city":"KASILOF","lat":"60.28","long":"-151.26"},{"city":"KENAI","lat":"60.66","long":"-150.9"},{"city":"KETCHIKAN","lat":"55.61","long":"-131.58"},{"city":"KIANA","lat":"66.97","long":"-160.43"},{"city":"KING COVE","lat":"55.08","long":"-162.32"},{"city":"KING SALMON","lat":"58.75","long":"-156.54"},{"city":"KIPNUK","lat":"59.93","long":"-164.06"},{"city":"KIVALINA","lat":"67.73","long":"-164.55"},{"city":"KLAWOCK","lat":"55.54","long":"-132.96"},{"city":"KOBUK","lat":"66.93","long":"-156.88"},{"city":"KODIAK","lat":"57.79","long":"-152.4"},{"city":"KONGIGANAK","lat":"60.78","long":"-161.79"},{"city":"KOTLIK","lat":"62.84","long":"-163.65"},{"city":"KOTZEBUE","lat":"67.24","long":"-161.19"},{"city":"KOYUK","lat":"64.93","long":"-161.14"},{"city":"KOYUKUK","lat":"65.04","long":"-158.66"},{"city":"KWETHLUK","lat":"60.79","long":"-161.42"},{"city":"KWIGILLINGOK","lat":"59.87","long":"-163.18"},{"city":"LAKE MINCHUMINA","lat":"63.81","long":"-152.25"},{"city":"LARSEN BAY","lat":"57.48","long":"-153.99"},{"city":"LEVELOCK","lat":"58.95","long":"-156.48"},{"city":"LOWER KALSKAG","lat":"61.51","long":"-160.36"},{"city":"MANLEY HOT SPRINGS","lat":"64.65","long":"-150.9"},{"city":"MANOKOTAK","lat":"58.88","long":"-158.93"},{"city":"MARSHALL","lat":"61.87","long":"-162.05"},{"city":"MC GRATH","lat":"62.51","long":"-154.44"},{"city":"MEKORYUK","lat":"60.08","long":"-166.48"},{"city":"METLAKATLA","lat":"55.14","long":"-131.49"},{"city":"MEYERS CHUCK","lat":"55.68","long":"-132.19"},{"city":"MINTO","lat":"65.09","long":"-149.64"},{"city":"MOOSE PASS","lat":"60.57","long":"-149.45"},{"city":"MOUNTAIN VILLAGE","lat":"62.09","long":"-163.71"},{"city":"NAKNEK","lat":"58.8","long":"-156.73"},{"city":"NAPAKIAK","lat":"60.67","long":"-162.01"},{"city":"NENANA","lat":"64.47","long":"-148.57"},{"city":"NEW STUYAHOK","lat":"59.47","long":"-157.27"},{"city":"NIGHTMUTE","lat":"60.49","long":"-164.81"},{"city":"NIKISKI","lat":"60.91","long":"-150.7"},{"city":"NIKOLAI","lat":"62.87","long":"-153.87"},{"city":"NIKOLSKI","lat":"52.99","long":"-168.82"},{"city":"NINILCHIK","lat":"60.07","long":"-151.42"},{"city":"NOATAK","lat":"67.57","long":"-163"},{"city":"NOME","lat":"64.71","long":"-164.62"},{"city":"NONDALTON","lat":"59.96","long":"-154.87"},{"city":"NOORVIK","lat":"66.83","long":"-161.03"},{"city":"NORTH POLE","lat":"64.77","long":"-147.33"},{"city":"NORTHWAY","lat":"63","long":"-141.69"},{"city":"NUIQSUT","lat":"69.83","long":"-152.14"},{"city":"NULATO","lat":"64.72","long":"-158.11"},{"city":"NUNAM IQUA","lat":"62.09","long":"-165.18"},{"city":"NUNAPITCHUK","lat":"60.88","long":"-162.32"},{"city":"OLD HARBOR","lat":"57.21","long":"-153.32"},{"city":"OUZINKIE","lat":"57.93","long":"-152.42"},{"city":"PALMER","lat":"61.6","long":"-148.46"},{"city":"PEDRO BAY","lat":"59.86","long":"-154.03"},{"city":"PELICAN","lat":"57.95","long":"-136.11"},{"city":"PERRYVILLE","lat":"55.9","long":"-159.27"},{"city":"PETERSBURG","lat":"57.05","long":"-132.62"},{"city":"PILOT POINT","lat":"57.83","long":"-157.13"},{"city":"PILOT STATION","lat":"61.94","long":"-162.88"},{"city":"PLATINUM","lat":"58.96","long":"-161.74"},{"city":"POINT BAKER","lat":"56.3","long":"-133.57"},{"city":"POINT HOPE","lat":"68.34","long":"-166.67"},{"city":"POINT LAY","lat":"69.73","long":"-162.82"},{"city":"PORT ALEXANDER","lat":"56.21","long":"-134.66"},{"city":"PORT ALSWORTH","lat":"60.46","long":"-154.19"},{"city":"PORT HEIDEN","lat":"57.09","long":"-158.26"},{"city":"PORT LIONS","lat":"57.9","long":"-153.04"},{"city":"PRUDHOE BAY","lat":"70.01","long":"-148.88"},{"city":"QUINHAGAK","lat":"59.81","long":"-161.71"},{"city":"RAMPART","lat":"65.4","long":"-150.2"},{"city":"RED DEVIL","lat":"61.66","long":"-157.69"},{"city":"RUBY","lat":"64.79","long":"-153.87"},{"city":"RUSSIAN MISSION","lat":"61.81","long":"-161.44"},{"city":"SAINT GEORGE ISLAND","lat":"56.57","long":"-169.63"},{"city":"SAINT MARYS","lat":"62.06","long":"-163.29"},{"city":"SAINT MICHAEL","lat":"63.47","long":"-162.11"},{"city":"SAINT PAUL ISLAND","lat":"57.18","long":"-170.26"},{"city":"SALCHA","lat":"64.37","long":"-146.59"},{"city":"SAND POINT","lat":"55.26","long":"-160.66"},{"city":"SAVOONGA","lat":"63.68","long":"-170.49"},{"city":"SCAMMON BAY","lat":"61.74","long":"-165.47"},{"city":"SELAWIK","lat":"66.59","long":"-160.02"},{"city":"SELDOVIA","lat":"59.39","long":"-151.66"},{"city":"SEWARD","lat":"60.05","long":"-149.33"},{"city":"SHAGELUK","lat":"62.64","long":"-159.53"},{"city":"SHAKTOOLIK","lat":"64.25","long":"-160.91"},{"city":"SHISHMAREF","lat":"66.02","long":"-165.91"},{"city":"SHUNGNAK","lat":"66.88","long":"-157.15"},{"city":"SITKA","lat":"56.73","long":"-135"},{"city":"SKAGWAY","lat":"59.57","long":"-135.35"},{"city":"SKWENTNA","lat":"61.93","long":"-151.73"},{"city":"SLEETMUTE","lat":"61.31","long":"-157.42"},{"city":"SOLDOTNA","lat":"60.32","long":"-150.79"},{"city":"SOUTH NAKNEK","lat":"58.67","long":"-156.98"},{"city":"STEBBINS","lat":"63.47","long":"-162.28"},{"city":"STERLING","lat":"60.54","long":"-150.79"},{"city":"STEVENS VILLAGE","lat":"66.01","long":"-149.07"},{"city":"SUTTON","lat":"61.86","long":"-148.29"},{"city":"TAKOTNA","lat":"62.97","long":"-156.08"},{"city":"TALKEETNA","lat":"62.42","long":"-148.76"},{"city":"TANACROSS","lat":"63.38","long":"-143.39"},{"city":"TANANA","lat":"65.18","long":"-152.07"},{"city":"TATITLEK","lat":"60.88","long":"-146.65"},{"city":"TELLER","lat":"65.25","long":"-166.36"},{"city":"TENAKEE SPRINGS","lat":"57.83","long":"-135.13"},{"city":"THORNE BAY","lat":"55.57","long":"-132.39"},{"city":"TOGIAK","lat":"59.21","long":"-160.54"},{"city":"TOK","lat":"63.66","long":"-143.19"},{"city":"TOKSOOK BAY","lat":"60.54","long":"-165.14"},{"city":"TRAPPER CREEK","lat":"62.69","long":"-151.07"},{"city":"TULUKSAK","lat":"61.06","long":"-160.36"},{"city":"TUNTUTULIAK","lat":"60.41","long":"-162.65"},{"city":"TUNUNAK","lat":"60.6","long":"-165.13"},{"city":"TWO RIVERS","lat":"64.87","long":"-146.87"},{"city":"TYONEK","lat":"61.08","long":"-151.16"},{"city":"UNALAKLEET","lat":"64.09","long":"-160.36"},{"city":"UNALASKA","lat":"53.9","long":"-166.4"},{"city":"VALDEZ","lat":"61.4","long":"-145.66"},{"city":"VENETIE","lat":"67","long":"-146.37"},{"city":"WAINWRIGHT","lat":"70.63","long":"-159.96"},{"city":"WALES","lat":"65.61","long":"-168.09"},{"city":"WARD COVE","lat":"55.45","long":"-131.79"},{"city":"WASILLA","lat":"61.61","long":"-149.58"},{"city":"WHITE MOUNTAIN","lat":"64.64","long":"-163.73"},{"city":"WHITTIER","lat":"60.28","long":"-148.3"},{"city":"WILLOW","lat":"61.89","long":"-149.73"},{"city":"WRANGELL","lat":"55.95","long":"-131.96"},{"city":"YAKUTAT","lat":"59.51","long":"-139.71"}]