[{"city":"ABBEVILLE","lat":"31.56","long":"-85.25"},{"city":"ABERNANT","lat":"33.26","long":"-87.16"},{"city":"ADAMSVILLE","lat":"33.59","long":"-86.95"},{"city":"ADDISON","lat":"34.19","long":"-87.17"},{"city":"ADGER","lat":"33.42","long":"-87.19"},{"city":"AKRON","lat":"32.87","long":"-87.73"},{"city":"ALABASTER","lat":"33.22","long":"-86.82"},{"city":"ALBERTA","lat":"32.23","long":"-87.41"},{"city":"ALBERTVILLE","lat":"34.26","long":"-86.2"},{"city":"ALEXANDER CITY","lat":"32.92","long":"-85.93"},{"city":"ALEXANDRIA","lat":"33.78","long":"-85.9"},{"city":"ALICEVILLE","lat":"33.12","long":"-88.15"},{"city":"ALLGOOD","lat":"33.9","long":"-86.51"},{"city":"ALPINE","lat":"33.33","long":"-86.18"},{"city":"ALTON","lat":"33.61","long":"-86.59"},{"city":"ALTOONA","lat":"34.03","long":"-86.31"},{"city":"ANDALUSIA","lat":"31.3","long":"-86.48"},{"city":"ANDERSON","lat":"34.91","long":"-87.27"},{"city":"ANNEMANIE","lat":"32.07","long":"-87.56"},{"city":"ANNISTON","lat":"33.66","long":"-85.81"},{"city":"ARAB","lat":"34.32","long":"-86.5"},{"city":"ARDMORE","lat":"34.98","long":"-86.83"},{"city":"ARITON","lat":"31.59","long":"-85.71"},{"city":"ARLEY","lat":"34.08","long":"-87.21"},{"city":"ARLINGTON","lat":"32.07","long":"-87.56"},{"city":"ASHFORD","lat":"31.18","long":"-85.23"},{"city":"ASHLAND","lat":"33.27","long":"-85.83"},{"city":"ASHVILLE","lat":"33.83","long":"-86.26"},{"city":"ATHENS","lat":"34.78","long":"-86.95"},{"city":"ATMORE","lat":"31.02","long":"-87.49"},{"city":"ATTALLA","lat":"34.01","long":"-86.1"},{"city":"AUBURN","lat":"32.59","long":"-85.48"},{"city":"AUBURN UNIVERSITY","lat":"32.6","long":"-85.48"},{"city":"AUTAUGAVILLE","lat":"32.43","long":"-86.65"},{"city":"AXIS","lat":"30.92","long":"-88.02"},{"city":"BAILEYTON","lat":"34.26","long":"-86.61"},{"city":"BANKS","lat":"31.81","long":"-85.83"},{"city":"BANKSTON","lat":"33.7","long":"-87.68"},{"city":"BAY MINETTE","lat":"30.88","long":"-87.77"},{"city":"BAYOU LA BATRE","lat":"30.4","long":"-88.25"},{"city":"BEAR CREEK","lat":"34.26","long":"-87.71"},{"city":"BEATRICE","lat":"31.73","long":"-87.2"},{"city":"BEAVERTON","lat":"33.93","long":"-88.02"},{"city":"BELK","lat":"33.64","long":"-87.92"},{"city":"BELLAMY","lat":"32.42","long":"-88.12"},{"city":"BELLE MINA","lat":"34.65","long":"-86.82"},{"city":"BELLWOOD","lat":"31.17","long":"-85.79"},{"city":"BERRY","lat":"33.66","long":"-87.6"},{"city":"BESSEMER","lat":"33.37","long":"-86.96"},{"city":"BILLINGSLEY","lat":"32.66","long":"-86.7"},{"city":"BIRMINGHAM","lat":"33.52","long":"-86.79"},{"city":"BLACK","lat":"31","long":"-85.74"},{"city":"BLOUNTSVILLE","lat":"34.08","long":"-86.58"},{"city":"BOAZ","lat":"34.2","long":"-86.15"},{"city":"BOLIGEE","lat":"32.75","long":"-88.02"},{"city":"BON AIR","lat":"33.26","long":"-86.33"},{"city":"BON SECOUR","lat":"30.31","long":"-87.72"},{"city":"BOOTH","lat":"32.47","long":"-86.53"},{"city":"BOYKIN","lat":"32.07","long":"-87.28"},{"city":"BRANTLEY","lat":"31.58","long":"-86.25"},{"city":"BREMEN","lat":"33.95","long":"-87"},{"city":"BRENT","lat":"32.94","long":"-87.17"},{"city":"BREWTON","lat":"31.11","long":"-87.07"},{"city":"BRIDGEPORT","lat":"34.94","long":"-85.71"},{"city":"BRIERFIELD","lat":"33.06","long":"-86.98"},{"city":"BRILLIANT","lat":"34.01","long":"-87.77"},{"city":"BROOKLYN","lat":"31.26","long":"-86.77"},{"city":"BROOKSIDE","lat":"33.63","long":"-86.91"},{"city":"BROOKWOOD","lat":"33.24","long":"-87.32"},{"city":"BROWNSBORO","lat":"34.7","long":"-86.46"},{"city":"BRUNDIDGE","lat":"31.71","long":"-85.81"},{"city":"BRYANT","lat":"34.95","long":"-85.64"},{"city":"BUCKS","lat":"31.01","long":"-88.02"},{"city":"BUHL","lat":"33.25","long":"-87.73"},{"city":"BURNWELL","lat":"33.6","long":"-87.14"},{"city":"BUTLER","lat":"32.08","long":"-88.22"},{"city":"BYNUM","lat":"33.6","long":"-85.95"},{"city":"CALERA","lat":"33.1","long":"-86.75"},{"city":"CALVERT","lat":"31.15","long":"-88.01"},{"city":"CAMDEN","lat":"31.99","long":"-87.29"},{"city":"CAMP HILL","lat":"32.8","long":"-85.65"},{"city":"CAMPBELL","lat":"31.95","long":"-88.02"},{"city":"CAPSHAW","lat":"34.77","long":"-87.01"},{"city":"CARBON HILL","lat":"33.89","long":"-87.52"},{"city":"CARDIFF","lat":"33.64","long":"-86.92"},{"city":"CARLTON","lat":"31.34","long":"-87.84"},{"city":"CARROLLTON","lat":"33.26","long":"-88.09"},{"city":"CASTLEBERRY","lat":"31.29","long":"-87.02"},{"city":"CATHERINE","lat":"32.18","long":"-87.46"},{"city":"CECIL","lat":"32.3","long":"-85.99"},{"city":"CEDAR BLUFF","lat":"34.22","long":"-85.59"},{"city":"CENTRE","lat":"34.15","long":"-85.67"},{"city":"CENTREVILLE","lat":"32.95","long":"-87.13"},{"city":"CHANCELLOR","lat":"31.18","long":"-85.87"},{"city":"CHAPMAN","lat":"31.66","long":"-86.72"},{"city":"CHATOM","lat":"31.46","long":"-88.25"},{"city":"CHELSEA","lat":"33.32","long":"-86.63"},{"city":"CHEROKEE","lat":"34.75","long":"-87.96"},{"city":"CHILDERSBURG","lat":"33.27","long":"-86.35"},{"city":"CHOCCOLOCCO","lat":"33.67","long":"-85.83"},{"city":"CHUNCHULA","lat":"30.92","long":"-88.2"},{"city":"CITRONELLE","lat":"31.09","long":"-88.24"},{"city":"CLANTON","lat":"32.84","long":"-86.62"},{"city":"CLAY","lat":"33.7","long":"-86.58"},{"city":"CLAYTON","lat":"31.88","long":"-85.45"},{"city":"CLEVELAND","lat":"33.99","long":"-86.57"},{"city":"CLINTON","lat":"32.93","long":"-87.98"},{"city":"CLIO","lat":"31.7","long":"-85.61"},{"city":"CLOPTON","lat":"31.6","long":"-85.43"},{"city":"CLOVERDALE","lat":"34.95","long":"-87.78"},{"city":"COALING","lat":"33.15","long":"-87.36"},{"city":"CODEN","lat":"30.4","long":"-88.16"},{"city":"COFFEE SPRINGS","lat":"31.16","long":"-85.9"},{"city":"COFFEEVILLE","lat":"31.76","long":"-88.08"},{"city":"COKER","lat":"33.28","long":"-87.67"},{"city":"COLLINSVILLE","lat":"34.26","long":"-85.86"},{"city":"COLUMBIA","lat":"31.29","long":"-85.11"},{"city":"COLUMBIANA","lat":"33.17","long":"-86.6"},{"city":"COOK SPRINGS","lat":"33.59","long":"-86.36"},{"city":"COOSADA","lat":"32.49","long":"-86.33"},{"city":"CORDOVA","lat":"33.76","long":"-87.19"},{"city":"COTTONDALE","lat":"33.16","long":"-87.36"},{"city":"COTTONTON","lat":"32.13","long":"-85.14"},{"city":"COTTONWOOD","lat":"31.05","long":"-85.3"},{"city":"COURTLAND","lat":"34.66","long":"-87.31"},{"city":"COWARTS","lat":"31.19","long":"-85.3"},{"city":"COY","lat":"31.89","long":"-87.46"},{"city":"CRAGFORD","lat":"33.21","long":"-85.69"},{"city":"CRANE HILL","lat":"34.07","long":"-87.05"},{"city":"CREOLA","lat":"30.89","long":"-88"},{"city":"CROPWELL","lat":"33.45","long":"-86.34"},{"city":"CROSSVILLE","lat":"34.28","long":"-85.99"},{"city":"CUBA","lat":"32.44","long":"-88.37"},{"city":"CULLMAN","lat":"34.17","long":"-86.83"},{"city":"CUSSETA","lat":"32.75","long":"-85.23"},{"city":"DADEVILLE","lat":"32.83","long":"-85.76"},{"city":"DALEVILLE","lat":"31.3","long":"-85.71"},{"city":"DANVILLE","lat":"34.39","long":"-87.12"},{"city":"DAPHNE","lat":"30.62","long":"-87.89"},{"city":"DAUPHIN ISLAND","lat":"30.25","long":"-88.11"},{"city":"DAVISTON","lat":"33.05","long":"-85.63"},{"city":"DAWSON","lat":"34.35","long":"-85.92"},{"city":"DE ARMANVILLE","lat":"33.67","long":"-85.83"},{"city":"DEATSVILLE","lat":"32.62","long":"-86.4"},{"city":"DECATUR","lat":"34.57","long":"-86.98"},{"city":"DEER PARK","lat":"31.21","long":"-88.31"},{"city":"DELMAR","lat":"34.17","long":"-87.61"},{"city":"DELTA","lat":"33.45","long":"-85.68"},{"city":"DEMOPOLIS","lat":"32.5","long":"-87.83"},{"city":"DETROIT","lat":"34.02","long":"-88.16"},{"city":"DICKINSON","lat":"31.76","long":"-87.71"},{"city":"DIXONS MILLS","lat":"32.05","long":"-87.72"},{"city":"DOCENA","lat":"33.56","long":"-86.89"},{"city":"DOLOMITE","lat":"33.47","long":"-86.94"},{"city":"DORA","lat":"33.73","long":"-87.08"},{"city":"DOTHAN","lat":"31.23","long":"-85.4"},{"city":"DOUBLE SPRINGS","lat":"34.14","long":"-87.4"},{"city":"DOUGLAS","lat":"34.17","long":"-86.32"},{"city":"DOZIER","lat":"31.5","long":"-86.37"},{"city":"DUNCANVILLE","lat":"33.06","long":"-87.42"},{"city":"DUTTON","lat":"34.6","long":"-85.91"},{"city":"EAST TALLASSEE","lat":"32.6","long":"-85.8"},{"city":"EASTABOGA","lat":"33.6","long":"-85.97"},{"city":"ECHOLA","lat":"33.32","long":"-87.81"},{"city":"ECLECTIC","lat":"32.63","long":"-86.03"},{"city":"EDWARDSVILLE","lat":"33.7","long":"-85.5"},{"city":"EIGHT MILE","lat":"30.76","long":"-88.12"},{"city":"ELBA","lat":"31.41","long":"-86.07"},{"city":"ELBERTA","lat":"30.41","long":"-87.6"},{"city":"ELDRIDGE","lat":"33.92","long":"-87.61"},{"city":"ELKMONT","lat":"34.92","long":"-86.97"},{"city":"ELMORE","lat":"32.53","long":"-86.31"},{"city":"ELROD","lat":"33.36","long":"-87.8"},{"city":"EMELLE","lat":"32.72","long":"-88.31"},{"city":"EMPIRE","lat":"33.84","long":"-87.01"},{"city":"ENTERPRISE","lat":"31.32","long":"-85.84"},{"city":"EPES","lat":"32.69","long":"-88.12"},{"city":"EQUALITY","lat":"32.8","long":"-86.11"},{"city":"ESTILLFORK","lat":"34.91","long":"-86.2"},{"city":"ETHELSVILLE","lat":"33.41","long":"-88.21"},{"city":"EUFAULA","lat":"31.9","long":"-85.15"},{"city":"EUTAW","lat":"32.84","long":"-87.89"},{"city":"EVA","lat":"34.33","long":"-86.75"},{"city":"EVERGREEN","lat":"31.43","long":"-86.95"},{"city":"EXCEL","lat":"31.42","long":"-87.34"},{"city":"FACKLER","lat":"34.83","long":"-85.98"},{"city":"FAIRFIELD","lat":"33.47","long":"-86.91"},{"city":"FAIRHOPE","lat":"30.51","long":"-87.88"},{"city":"FALKVILLE","lat":"34.37","long":"-86.9"},{"city":"FAUNSDALE","lat":"32.45","long":"-87.59"},{"city":"FAYETTE","lat":"33.69","long":"-87.83"},{"city":"FITZPATRICK","lat":"32.17","long":"-85.9"},{"city":"FIVE POINTS","lat":"33.01","long":"-85.35"},{"city":"FLAT ROCK","lat":"34.8","long":"-85.73"},{"city":"FLOMATON","lat":"31.01","long":"-87.25"},{"city":"FLORALA","lat":"31.02","long":"-86.3"},{"city":"FLORENCE","lat":"34.82","long":"-87.66"},{"city":"FOLEY","lat":"30.4","long":"-87.68"},{"city":"FOREST HOME","lat":"31.86","long":"-86.84"},{"city":"FORKLAND","lat":"32.64","long":"-87.86"},{"city":"FORT DAVIS","lat":"32.29","long":"-85.73"},{"city":"FORT DEPOSIT","lat":"31.98","long":"-86.57"},{"city":"FORT MITCHELL","lat":"32.38","long":"-85.1"},{"city":"FORT PAYNE","lat":"34.45","long":"-85.69"},{"city":"FORT RUCKER","lat":"31.34","long":"-85.71"},{"city":"FOSTERS","lat":"33.12","long":"-87.72"},{"city":"FRANKLIN","lat":"31.71","long":"-87.41"},{"city":"FRANKVILLE","lat":"31.64","long":"-88.14"},{"city":"FRISCO CITY","lat":"31.43","long":"-87.4"},{"city":"FRUITDALE","lat":"31.34","long":"-88.41"},{"city":"FRUITHURST","lat":"33.73","long":"-85.43"},{"city":"FULTON","lat":"31.78","long":"-87.72"},{"city":"FULTONDALE","lat":"33.61","long":"-86.8"},{"city":"FURMAN","lat":"32","long":"-86.96"},{"city":"FYFFE","lat":"34.45","long":"-85.9"},{"city":"GADSDEN","lat":"34.01","long":"-86.01"},{"city":"GAINESTOWN","lat":"31.44","long":"-87.69"},{"city":"GAINESVILLE","lat":"32.81","long":"-88.15"},{"city":"GALLANT","lat":"33.99","long":"-86.22"},{"city":"GALLION","lat":"32.54","long":"-87.7"},{"city":"GANTT","lat":"31.4","long":"-86.48"},{"city":"GARDEN CITY","lat":"34.01","long":"-86.75"},{"city":"GARDENDALE","lat":"33.66","long":"-86.8"},{"city":"GAYLESVILLE","lat":"34.26","long":"-85.55"},{"city":"GENEVA","lat":"31.03","long":"-85.87"},{"city":"GEORGIANA","lat":"31.63","long":"-86.74"},{"city":"GERALDINE","lat":"34.36","long":"-86"},{"city":"GILBERTOWN","lat":"31.87","long":"-88.31"},{"city":"GLEN ALLEN","lat":"33.88","long":"-87.74"},{"city":"GLENWOOD","lat":"31.66","long":"-86.17"},{"city":"GOODSPRINGS","lat":"33.67","long":"-87.23"},{"city":"GOODWATER","lat":"33.06","long":"-86.05"},{"city":"GOODWAY","lat":"31.33","long":"-87.43"},{"city":"GORDO","lat":"33.32","long":"-87.9"},{"city":"GORDON","lat":"31.14","long":"-85.09"},{"city":"GOSHEN","lat":"31.71","long":"-86.12"},{"city":"GRADY","lat":"32.01","long":"-86.11"},{"city":"GRAHAM","lat":"33.46","long":"-85.33"},{"city":"GRAND BAY","lat":"30.47","long":"-88.34"},{"city":"GRANT","lat":"34.51","long":"-86.25"},{"city":"GRAYSVILLE","lat":"33.62","long":"-86.96"},{"city":"GREEN POND","lat":"33.21","long":"-87.14"},{"city":"GREENSBORO","lat":"32.7","long":"-87.59"},{"city":"GREENVILLE","lat":"31.82","long":"-86.62"},{"city":"GROVE HILL","lat":"31.7","long":"-87.77"},{"city":"GROVEOAK","lat":"34.43","long":"-86.04"},{"city":"GUIN","lat":"33.96","long":"-87.91"},{"city":"GULF SHORES","lat":"30.27","long":"-87.7"},{"city":"GUNTERSVILLE","lat":"34.35","long":"-86.27"},{"city":"GURLEY","lat":"34.7","long":"-86.37"},{"city":"HACKLEBURG","lat":"34.27","long":"-87.83"},{"city":"HALEYVILLE","lat":"34.23","long":"-87.61"},{"city":"HAMILTON","lat":"34.14","long":"-87.98"},{"city":"HANCEVILLE","lat":"34.06","long":"-86.76"},{"city":"HARDAWAY","lat":"32.3","long":"-85.87"},{"city":"HARPERSVILLE","lat":"33.34","long":"-86.43"},{"city":"HARTFORD","lat":"31.1","long":"-85.69"},{"city":"HARTSELLE","lat":"34.43","long":"-86.93"},{"city":"HARVEST","lat":"34.85","long":"-86.74"},{"city":"HATCHECHUBBEE","lat":"32.28","long":"-85.3"},{"city":"HAYDEN","lat":"33.89","long":"-86.75"},{"city":"HAYNEVILLE","lat":"32.18","long":"-86.57"},{"city":"HAZEL GREEN","lat":"34.92","long":"-86.56"},{"city":"HEADLAND","lat":"31.35","long":"-85.34"},{"city":"HEFLIN","lat":"33.64","long":"-85.58"},{"city":"HELENA","lat":"33.28","long":"-86.85"},{"city":"HENAGAR","lat":"34.63","long":"-85.73"},{"city":"HIGDON","lat":"34.88","long":"-85.63"},{"city":"HIGHLAND HOME","lat":"31.95","long":"-86.31"},{"city":"HILLSBORO","lat":"34.63","long":"-87.18"},{"city":"HODGES","lat":"34.32","long":"-87.92"},{"city":"HOLLINS","lat":"33.18","long":"-86.09"},{"city":"HOLLY POND","lat":"34.17","long":"-86.61"},{"city":"HOLLYTREE","lat":"34.79","long":"-86.25"},{"city":"HOLLYWOOD","lat":"34.71","long":"-85.96"},{"city":"HOLY TRINITY","lat":"32.16","long":"-85.12"},{"city":"HONORAVILLE","lat":"31.85","long":"-86.4"},{"city":"HOPE HULL","lat":"32.21","long":"-86.4"},{"city":"HORTON","lat":"34.18","long":"-86.32"},{"city":"HOUSTON","lat":"34.12","long":"-87.25"},{"city":"HUNTSVILLE","lat":"34.7","long":"-86.62"},{"city":"HURTSBORO","lat":"32.23","long":"-85.41"},{"city":"HUXFORD","lat":"31.21","long":"-87.46"},{"city":"IDER","lat":"34.7","long":"-85.66"},{"city":"IRVINGTON","lat":"30.5","long":"-88.23"},{"city":"JACHIN","lat":"32.23","long":"-88.16"},{"city":"JACK","lat":"31.57","long":"-85.99"},{"city":"JACKSON","lat":"31.53","long":"-87.89"},{"city":"JACKSONS GAP","lat":"32.9","long":"-85.83"},{"city":"JACKSONVILLE","lat":"33.81","long":"-85.76"},{"city":"JASPER","lat":"33.85","long":"-87.27"},{"city":"JEFFERSON","lat":"32.38","long":"-87.89"},{"city":"JEMISON","lat":"32.96","long":"-86.74"},{"city":"JONES","lat":"32.6","long":"-86.88"},{"city":"JOPPA","lat":"34.27","long":"-86.54"},{"city":"KANSAS","lat":"33.9","long":"-87.55"},{"city":"KELLERMAN","lat":"33.31","long":"-87.32"},{"city":"KELLYTON","lat":"32.97","long":"-86.09"},{"city":"KENNEDY","lat":"33.58","long":"-87.98"},{"city":"KENT","lat":"32.66","long":"-86.02"},{"city":"KILLEN","lat":"34.86","long":"-87.52"},{"city":"KIMBERLY","lat":"33.76","long":"-86.8"},{"city":"KINSTON","lat":"31.21","long":"-86.16"},{"city":"KNOXVILLE","lat":"32.97","long":"-87.8"},{"city":"LACEYS SPRING","lat":"34.48","long":"-86.62"},{"city":"LAFAYETTE","lat":"32.89","long":"-85.4"},{"city":"LANETT","lat":"32.86","long":"-85.2"},{"city":"LANGSTON","lat":"34.53","long":"-86.09"},{"city":"LAPINE","lat":"31.98","long":"-86.27"},{"city":"LAWLEY","lat":"32.86","long":"-86.96"},{"city":"LEEDS","lat":"33.54","long":"-86.56"},{"city":"LEESBURG","lat":"34.17","long":"-85.76"},{"city":"LEIGHTON","lat":"34.69","long":"-87.53"},{"city":"LENOX","lat":"31.33","long":"-87.18"},{"city":"LEROY","lat":"31.5","long":"-87.98"},{"city":"LESTER","lat":"34.98","long":"-87.14"},{"city":"LETOHATCHEE","lat":"32.08","long":"-86.51"},{"city":"LEXINGTON","lat":"34.96","long":"-87.37"},{"city":"LILLIAN","lat":"30.41","long":"-87.43"},{"city":"LINCOLN","lat":"33.59","long":"-86.13"},{"city":"LINDEN","lat":"32.3","long":"-87.79"},{"city":"LINEVILLE","lat":"33.31","long":"-85.75"},{"city":"LISMAN","lat":"32.16","long":"-88.28"},{"city":"LITTLE RIVER","lat":"31.25","long":"-87.7"},{"city":"LIVINGSTON","lat":"32.59","long":"-88.18"},{"city":"LOACHAPOKA","lat":"32.6","long":"-85.59"},{"city":"LOCKHART","lat":"31.01","long":"-86.35"},{"city":"LOCUST FORK","lat":"33.9","long":"-86.62"},{"city":"LOGAN","lat":"34.18","long":"-87.04"},{"city":"LOUISVILLE","lat":"31.78","long":"-85.55"},{"city":"LOWER PEACH TREE","lat":"31.84","long":"-87.54"},{"city":"LOWNDESBORO","lat":"32.27","long":"-86.61"},{"city":"LOXLEY","lat":"30.62","long":"-87.75"},{"city":"LUVERNE","lat":"31.7","long":"-86.26"},{"city":"LYNN","lat":"34.04","long":"-87.54"},{"city":"MADISON","lat":"34.7","long":"-86.74"},{"city":"MAGNOLIA","lat":"32.13","long":"-87.66"},{"city":"MAGNOLIA SPRINGS","lat":"30.4","long":"-87.77"},{"city":"MALCOLM","lat":"31.19","long":"-88.01"},{"city":"MALVERN","lat":"31.13","long":"-85.51"},{"city":"MAPLESVILLE","lat":"32.78","long":"-86.87"},{"city":"MARBURY","lat":"32.64","long":"-86.54"},{"city":"MARGARET","lat":"33.68","long":"-86.47"},{"city":"MARION","lat":"32.63","long":"-87.31"},{"city":"MARION JUNCTION","lat":"32.44","long":"-87.28"},{"city":"MATHEWS","lat":"32.13","long":"-86.03"},{"city":"MAYLENE","lat":"33.23","long":"-86.93"},{"city":"MC CALLA","lat":"33.28","long":"-87.12"},{"city":"MC INTOSH","lat":"31.26","long":"-88.02"},{"city":"MC KENZIE","lat":"31.54","long":"-86.71"},{"city":"MC SHAN","lat":"33.38","long":"-88.14"},{"city":"MC WILLIAMS","lat":"31.84","long":"-87.08"},{"city":"MEGARGEL","lat":"31.38","long":"-87.43"},{"city":"MELVIN","lat":"31.92","long":"-88.45"},{"city":"MENTONE","lat":"34.56","long":"-85.58"},{"city":"MERIDIANVILLE","lat":"34.87","long":"-86.57"},{"city":"MEXIA","lat":"31.5","long":"-87.39"},{"city":"MIDLAND CITY","lat":"31.31","long":"-85.49"},{"city":"MIDWAY","lat":"32.07","long":"-85.52"},{"city":"MILLBROOK","lat":"32.49","long":"-86.36"},{"city":"MILLERVILLE","lat":"33.15","long":"-85.95"},{"city":"MILLPORT","lat":"33.55","long":"-88.08"},{"city":"MILLRY","lat":"31.62","long":"-88.31"},{"city":"MINTER","lat":"32.1","long":"-86.96"},{"city":"MOBILE","lat":"30.68","long":"-88.04"},{"city":"MONROEVILLE","lat":"31.51","long":"-87.32"},{"city":"MONTEVALLO","lat":"33.1","long":"-86.85"},{"city":"MONTGOMERY","lat":"32.35","long":"-86.28"},{"city":"MONTROSE","lat":"30.56","long":"-87.9"},{"city":"MOODY","lat":"33.59","long":"-86.49"},{"city":"MOORESVILLE","lat":"34.62","long":"-86.88"},{"city":"MORRIS","lat":"33.74","long":"-86.8"},{"city":"MORVIN","lat":"31.98","long":"-87.99"},{"city":"MOULTON","lat":"34.48","long":"-87.28"},{"city":"MOUNDVILLE","lat":"32.99","long":"-87.63"},{"city":"MOUNT HOPE","lat":"34.4","long":"-87.44"},{"city":"MOUNT MEIGS","lat":"32.36","long":"-86.06"},{"city":"MOUNT OLIVE","lat":"33.67","long":"-86.89"},{"city":"MOUNT VERNON","lat":"31.09","long":"-88.01"},{"city":"MULGA","lat":"33.54","long":"-86.97"},{"city":"MUNFORD","lat":"33.53","long":"-85.92"},{"city":"MUSCADINE","lat":"33.74","long":"-85.37"},{"city":"MUSCLE SHOALS","lat":"34.74","long":"-87.64"},{"city":"MYRTLEWOOD","lat":"32.24","long":"-87.94"},{"city":"NANAFALIA","lat":"32.11","long":"-87.98"},{"city":"NATURAL BRIDGE","lat":"34.1","long":"-87.6"},{"city":"NAUVOO","lat":"33.98","long":"-87.48"},{"city":"NEEDHAM","lat":"31.98","long":"-88.33"},{"city":"NEW BROCKTON","lat":"31.38","long":"-85.92"},{"city":"NEW CASTLE","lat":"33.68","long":"-86.77"},{"city":"NEW HOPE","lat":"34.53","long":"-86.41"},{"city":"NEW MARKET","lat":"34.9","long":"-86.42"},{"city":"NEWBERN","lat":"32.59","long":"-87.53"},{"city":"NEWTON","lat":"31.33","long":"-85.6"},{"city":"NEWVILLE","lat":"31.42","long":"-85.33"},{"city":"NORMAL","lat":"34.79","long":"-86.7"},{"city":"NORTHPORT","lat":"33.24","long":"-87.59"},{"city":"NOTASULGA","lat":"32.55","long":"-85.67"},{"city":"OAK HILL","lat":"31.92","long":"-87.08"},{"city":"OAKMAN","lat":"33.71","long":"-87.38"},{"city":"ODENVILLE","lat":"33.68","long":"-86.39"},{"city":"OHATCHEE","lat":"33.78","long":"-86.01"},{"city":"ONEONTA","lat":"33.95","long":"-86.47"},{"city":"OPELIKA","lat":"32.65","long":"-85.37"},{"city":"OPP","lat":"31.29","long":"-86.25"},{"city":"ORANGE BEACH","lat":"30.28","long":"-87.59"},{"city":"ORRVILLE","lat":"32.3","long":"-87.24"},{"city":"OWENS CROSS ROADS","lat":"34.6","long":"-86.46"},{"city":"OXFORD","lat":"33.66","long":"-85.81"},{"city":"OZARK","lat":"31.43","long":"-85.64"},{"city":"PAINT ROCK","lat":"34.66","long":"-86.32"},{"city":"PALMERDALE","lat":"33.74","long":"-86.65"},{"city":"PANOLA","lat":"32.96","long":"-88.29"},{"city":"PANSEY","lat":"31.15","long":"-85.17"},{"city":"PARRISH","lat":"33.73","long":"-87.28"},{"city":"PELHAM","lat":"33.3","long":"-86.79"},{"city":"PELL CITY","lat":"33.56","long":"-86.27"},{"city":"PENNINGTON","lat":"32.19","long":"-88.05"},{"city":"PERDIDO","lat":"31","long":"-87.62"},{"city":"PERDUE HILL","lat":"31.51","long":"-87.49"},{"city":"PEROTE","lat":"31.99","long":"-85.75"},{"city":"PETERMAN","lat":"31.58","long":"-87.25"},{"city":"PETERSON","lat":"33.31","long":"-87.32"},{"city":"PETREY","lat":"31.84","long":"-86.2"},{"city":"PHENIX CITY","lat":"32.46","long":"-85.01"},{"city":"PHIL CAMPBELL","lat":"34.35","long":"-87.7"},{"city":"PIEDMONT","lat":"33.92","long":"-85.61"},{"city":"PIKE ROAD","lat":"32.3","long":"-86.08"},{"city":"PINCKARD","lat":"31.32","long":"-85.54"},{"city":"PINE APPLE","lat":"31.87","long":"-86.98"},{"city":"PINE HILL","lat":"31.98","long":"-87.58"},{"city":"PINE LEVEL","lat":"32.01","long":"-86.11"},{"city":"PINSON","lat":"33.72","long":"-86.65"},{"city":"PISGAH","lat":"34.68","long":"-85.84"},{"city":"PITTSVIEW","lat":"32.16","long":"-85.12"},{"city":"PLANTERSVILLE","lat":"32.61","long":"-86.98"},{"city":"PLEASANT GROVE","lat":"33.48","long":"-86.97"},{"city":"POINT CLEAR","lat":"30.48","long":"-87.9"},{"city":"PRATTVILLE","lat":"32.46","long":"-86.44"},{"city":"PRINCETON","lat":"34.83","long":"-86.22"},{"city":"QUINTON","lat":"33.64","long":"-87.14"},{"city":"RAGLAND","lat":"33.74","long":"-86.13"},{"city":"RAINBOW CITY","lat":"33.92","long":"-86.08"},{"city":"RAINSVILLE","lat":"34.49","long":"-85.84"},{"city":"RALPH","lat":"33.05","long":"-87.76"},{"city":"RAMER","lat":"32.07","long":"-86.24"},{"city":"RANBURNE","lat":"33.52","long":"-85.34"},{"city":"RANDOLPH","lat":"32.89","long":"-86.9"},{"city":"RANGE","lat":"31.31","long":"-87.23"},{"city":"RED BAY","lat":"34.43","long":"-88.13"},{"city":"RED LEVEL","lat":"31.4","long":"-86.6"},{"city":"REFORM","lat":"33.37","long":"-88.01"},{"city":"REMLAP","lat":"33.84","long":"-86.62"},{"city":"REPTON","lat":"31.4","long":"-87.23"},{"city":"RIVER FALLS","lat":"31.35","long":"-86.54"},{"city":"RIVERSIDE","lat":"33.61","long":"-86.2"},{"city":"ROANOKE","lat":"33.14","long":"-85.36"},{"city":"ROBERTSDALE","lat":"30.55","long":"-87.7"},{"city":"ROCKFORD","lat":"32.88","long":"-86.21"},{"city":"ROGERSVILLE","lat":"34.82","long":"-87.28"},{"city":"RUSSELLVILLE","lat":"34.5","long":"-87.72"},{"city":"RUTLEDGE","lat":"31.72","long":"-86.3"},{"city":"RYLAND","lat":"34.73","long":"-86.5"},{"city":"SAFFORD","lat":"32.29","long":"-87.35"},{"city":"SAGINAW","lat":"33.25","long":"-86.79"},{"city":"SAINT ELMO","lat":"30.49","long":"-88.24"},{"city":"SAINT STEPHENS","lat":"31.53","long":"-88.05"},{"city":"SALEM","lat":"32.61","long":"-85.17"},{"city":"SAMANTHA","lat":"33.45","long":"-87.66"},{"city":"SAMSON","lat":"31.11","long":"-86.04"},{"city":"SARALAND","lat":"30.82","long":"-88.09"},{"city":"SARDIS","lat":"32.27","long":"-87.02"},{"city":"SATSUMA","lat":"30.85","long":"-88.06"},{"city":"SAWYERVILLE","lat":"32.74","long":"-87.74"},{"city":"SAYRE","lat":"33.73","long":"-86.99"},{"city":"SCOTTSBORO","lat":"34.64","long":"-86.04"},{"city":"SEALE","lat":"32.3","long":"-85.18"},{"city":"SECTION","lat":"34.58","long":"-85.98"},{"city":"SELMA","lat":"32.41","long":"-87.03"},{"city":"SEMINOLE","lat":"30.51","long":"-87.47"},{"city":"SEMMES","lat":"30.77","long":"-88.26"},{"city":"SHANNON","lat":"33.4","long":"-86.89"},{"city":"SHEFFIELD","lat":"34.75","long":"-87.7"},{"city":"SHELBY","lat":"33.07","long":"-86.56"},{"city":"SHORTER","lat":"32.4","long":"-85.93"},{"city":"SHORTERVILLE","lat":"31.56","long":"-85.1"},{"city":"SILAS","lat":"31.76","long":"-88.32"},{"city":"SILURIA","lat":"33.25","long":"-86.79"},{"city":"SILVERHILL","lat":"30.54","long":"-87.74"},{"city":"SIPSEY","lat":"33.82","long":"-87.08"},{"city":"SKIPPERVILLE","lat":"31.55","long":"-85.54"},{"city":"SLOCOMB","lat":"31.11","long":"-85.59"},{"city":"SMITHS STATION","lat":"32.53","long":"-85.08"},{"city":"SOMERVILLE","lat":"34.47","long":"-86.8"},{"city":"SPANISH FORT","lat":"30.67","long":"-87.88"},{"city":"SPRING GARDEN","lat":"33.97","long":"-85.55"},{"city":"SPRINGVILLE","lat":"33.77","long":"-86.47"},{"city":"SPRUCE PINE","lat":"34.37","long":"-87.69"},{"city":"STANTON","lat":"32.71","long":"-86.91"},{"city":"STAPLETON","lat":"30.74","long":"-87.79"},{"city":"STEELE","lat":"33.93","long":"-86.19"},{"city":"STERRETT","lat":"33.43","long":"-86.5"},{"city":"STEVENSON","lat":"34.87","long":"-85.83"},{"city":"STOCKTON","lat":"30.99","long":"-87.85"},{"city":"SULLIGENT","lat":"33.89","long":"-88.13"},{"city":"SUMITON","lat":"33.75","long":"-87.04"},{"city":"SUMMERDALE","lat":"30.48","long":"-87.7"},{"city":"SUNFLOWER","lat":"31.37","long":"-88.03"},{"city":"SWEET WATER","lat":"32.1","long":"-87.86"},{"city":"SYCAMORE","lat":"33.26","long":"-86.17"},{"city":"SYLACAUGA","lat":"33.17","long":"-86.26"},{"city":"SYLVANIA","lat":"34.55","long":"-85.8"},{"city":"TALLADEGA","lat":"33.43","long":"-86.09"},{"city":"TALLASSEE","lat":"32.53","long":"-85.89"},{"city":"TANNER","lat":"34.66","long":"-86.95"},{"city":"THEODORE","lat":"30.54","long":"-88.17"},{"city":"THOMASTON","lat":"32.26","long":"-87.62"},{"city":"THOMASVILLE","lat":"31.91","long":"-87.74"},{"city":"THORSBY","lat":"32.91","long":"-86.71"},{"city":"TIBBIE","lat":"31.36","long":"-88.24"},{"city":"TITUS","lat":"32.71","long":"-86.25"},{"city":"TONEY","lat":"34.9","long":"-86.72"},{"city":"TOWN CREEK","lat":"34.67","long":"-87.4"},{"city":"TOWNLEY","lat":"33.83","long":"-87.44"},{"city":"TOXEY","lat":"31.91","long":"-88.3"},{"city":"TRAFFORD","lat":"33.82","long":"-86.74"},{"city":"TRENTON","lat":"34.74","long":"-86.27"},{"city":"TRINITY","lat":"34.59","long":"-87.08"},{"city":"TROY","lat":"31.8","long":"-85.96"},{"city":"TRUSSVILLE","lat":"33.63","long":"-86.59"},{"city":"TUSCALOOSA","lat":"33.23","long":"-87.54"},{"city":"TUSCUMBIA","lat":"34.72","long":"-87.7"},{"city":"TUSKEGEE","lat":"32.43","long":"-85.71"},{"city":"TUSKEGEE INSTITUTE","lat":"32.42","long":"-85.71"},{"city":"TYLER","lat":"32.27","long":"-86.84"},{"city":"UNION GROVE","lat":"34.4","long":"-86.44"},{"city":"UNION SPRINGS","lat":"32.13","long":"-85.71"},{"city":"UNIONTOWN","lat":"32.44","long":"-87.5"},{"city":"URIAH","lat":"31.3","long":"-87.5"},{"city":"VALHERMOSO SPRINGS","lat":"34.55","long":"-86.69"},{"city":"VALLEY","lat":"32.8","long":"-85.17"},{"city":"VALLEY HEAD","lat":"34.55","long":"-85.62"},{"city":"VANCE","lat":"33.17","long":"-87.22"},{"city":"VANDIVER","lat":"33.48","long":"-86.5"},{"city":"VERBENA","lat":"32.75","long":"-86.52"},{"city":"VERNON","lat":"33.75","long":"-88.11"},{"city":"VINA","lat":"34.37","long":"-88.05"},{"city":"VINCENT","lat":"33.38","long":"-86.4"},{"city":"VINEGAR BEND","lat":"31.26","long":"-88.34"},{"city":"VINEMONT","lat":"34.26","long":"-86.94"},{"city":"VREDENBURGH","lat":"31.82","long":"-87.31"},{"city":"WADLEY","lat":"33.12","long":"-85.56"},{"city":"WAGARVILLE","lat":"31.44","long":"-88.03"},{"city":"WALNUT GROVE","lat":"34.06","long":"-86.28"},{"city":"WARD","lat":"32.29","long":"-88.09"},{"city":"WARRIOR","lat":"33.81","long":"-86.8"},{"city":"WATERLOO","lat":"34.91","long":"-88.06"},{"city":"WATSON","lat":"33.68","long":"-86.77"},{"city":"WATTSVILLE","lat":"33.74","long":"-86.43"},{"city":"WAVERLY","lat":"32.73","long":"-85.57"},{"city":"WEAVER","lat":"33.75","long":"-85.8"},{"city":"WEBB","lat":"31.25","long":"-85.28"},{"city":"WEDOWEE","lat":"33.3","long":"-85.48"},{"city":"WELLINGTON","lat":"33.86","long":"-85.91"},{"city":"WEOGUFKA","lat":"32.93","long":"-86.41"},{"city":"WEST BLOCTON","lat":"33.11","long":"-87.12"},{"city":"WEST GREENE","lat":"32.94","long":"-88.1"},{"city":"WESTOVER","lat":"33.38","long":"-86.6"},{"city":"WETUMPKA","lat":"32.54","long":"-86.2"},{"city":"WHATLEY","lat":"31.65","long":"-87.62"},{"city":"WILMER","lat":"30.82","long":"-88.35"},{"city":"WILSONVILLE","lat":"33.23","long":"-86.47"},{"city":"WILTON","lat":"33.08","long":"-86.88"},{"city":"WINFIELD","lat":"33.92","long":"-87.79"},{"city":"WING","lat":"31.02","long":"-86.61"},{"city":"WOODLAND","lat":"33.37","long":"-85.39"},{"city":"WOODSTOCK","lat":"33.16","long":"-87.17"},{"city":"WOODVILLE","lat":"34.62","long":"-86.28"},{"city":"YORK","lat":"32.49","long":"-88.29"}]