[{"city":"AGATE","lat":"39.47","long":"-103.95"},{"city":"AGUILAR","lat":"37.4","long":"-104.65"},{"city":"AKRON","lat":"40.16","long":"-103.21"},{"city":"ALAMOSA","lat":"37.46","long":"-105.87"},{"city":"ALLENSPARK","lat":"40.2","long":"-105.52"},{"city":"ALMA","lat":"39.28","long":"-106.06"},{"city":"ALMONT","lat":"38.67","long":"-106.83"},{"city":"AMHERST","lat":"40.68","long":"-102.17"},{"city":"ANTON","lat":"39.75","long":"-103.22"},{"city":"ANTONITO","lat":"37.07","long":"-106.01"},{"city":"ARAPAHOE","lat":"38.85","long":"-102.17"},{"city":"ARBOLES","lat":"37.02","long":"-107.4"},{"city":"ARLINGTON","lat":"38.33","long":"-103.33"},{"city":"ARRIBA","lat":"39.28","long":"-103.27"},{"city":"ARVADA","lat":"39.82","long":"-105.1"},{"city":"ASPEN","lat":"39.19","long":"-106.82"},{"city":"ATWOOD","lat":"40.55","long":"-103.27"},{"city":"AULT","lat":"40.58","long":"-104.73"},{"city":"AURORA","lat":"39.69","long":"-104.81"},{"city":"AUSTIN","lat":"38.78","long":"-107.93"},{"city":"AVON","lat":"39.65","long":"-106.53"},{"city":"AVONDALE","lat":"38.23","long":"-104.35"},{"city":"BAILEY","lat":"39.4","long":"-105.47"},{"city":"BASALT","lat":"39.36","long":"-107.02"},{"city":"BATTLEMENT MESA","lat":"39.44","long":"-108.02"},{"city":"BAYFIELD","lat":"37.23","long":"-107.59"},{"city":"BEDROCK","lat":"38.32","long":"-108.88"},{"city":"BELLVUE","lat":"40.63","long":"-105.17"},{"city":"BENNETT","lat":"39.75","long":"-104.42"},{"city":"BERTHOUD","lat":"40.3","long":"-105.08"},{"city":"BETHUNE","lat":"39.3","long":"-102.42"},{"city":"BEULAH","lat":"38.08","long":"-104.98"},{"city":"BLACK HAWK","lat":"39.8","long":"-105.49"},{"city":"BLANCA","lat":"37.43","long":"-105.51"},{"city":"BONCARBO","lat":"37.22","long":"-104.7"},{"city":"BOND","lat":"39.87","long":"-106.7"},{"city":"BOONE","lat":"38.25","long":"-104.25"},{"city":"BOULDER","lat":"40.02","long":"-105.25"},{"city":"BRANSON","lat":"37.01","long":"-103.87"},{"city":"BRECKENRIDGE","lat":"39.5","long":"-106.04"},{"city":"BRIGGSDALE","lat":"40.63","long":"-104.32"},{"city":"BRIGHTON","lat":"39.95","long":"-104.79"},{"city":"BROOMFIELD","lat":"39.94","long":"-105.06"},{"city":"BRUSH","lat":"40.25","long":"-103.63"},{"city":"BUENA VISTA","lat":"38.83","long":"-106.14"},{"city":"BUFFALO CREEK","lat":"39.38","long":"-105.27"},{"city":"BURLINGTON","lat":"39.3","long":"-102.27"},{"city":"BURNS","lat":"39.87","long":"-106.88"},{"city":"BYERS","lat":"39.71","long":"-104.22"},{"city":"CAHONE","lat":"37.65","long":"-108.82"},{"city":"CALHAN","lat":"39.03","long":"-104.29"},{"city":"CAMPO","lat":"37.1","long":"-102.57"},{"city":"CANON CITY","lat":"38.44","long":"-105.23"},{"city":"CAPULIN","lat":"37.28","long":"-106.12"},{"city":"CARBONDALE","lat":"39.39","long":"-107.21"},{"city":"CARR","lat":"40.9","long":"-104.87"},{"city":"CASCADE","lat":"38.9","long":"-104.97"},{"city":"CASTLE ROCK","lat":"39.37","long":"-104.85"},{"city":"CEDAREDGE","lat":"38.89","long":"-107.92"},{"city":"CENTER","lat":"37.75","long":"-106.11"},{"city":"CENTRAL CITY","lat":"39.79","long":"-105.51"},{"city":"CHAMA","lat":"37.17","long":"-105.38"},{"city":"CHERAW","lat":"38.1","long":"-103.51"},{"city":"CHEYENNE WELLS","lat":"38.81","long":"-102.35"},{"city":"CHIMNEY ROCK","lat":"37.21","long":"-107.34"},{"city":"CHROMO","lat":"37.03","long":"-106.83"},{"city":"CIMARRON","lat":"38.37","long":"-107.5"},{"city":"CLARK","lat":"40.7","long":"-106.92"},{"city":"CLIFTON","lat":"39.07","long":"-108.46"},{"city":"CLIMAX","lat":"39.37","long":"-106.18"},{"city":"COAL CREEK","lat":"38.35","long":"-105.14"},{"city":"COALDALE","lat":"38.37","long":"-105.75"},{"city":"COALMONT","lat":"40.57","long":"-106.43"},{"city":"COLLBRAN","lat":"39.23","long":"-107.95"},{"city":"COLORADO CITY","lat":"37.94","long":"-104.84"},{"city":"COLORADO SPRINGS","lat":"38.86","long":"-104.76"},{"city":"COMMERCE CITY","lat":"39.86","long":"-104.86"},{"city":"COMO","lat":"39.32","long":"-105.9"},{"city":"CONEJOS","lat":"37.08","long":"-106.02"},{"city":"CONIFER","lat":"39.52","long":"-105.3"},{"city":"COPE","lat":"39.67","long":"-102.85"},{"city":"CORTEZ","lat":"37.35","long":"-108.57"},{"city":"CORY","lat":"38.77","long":"-107.98"},{"city":"COTOPAXI","lat":"38.37","long":"-105.68"},{"city":"COWDREY","lat":"40.85","long":"-106.3"},{"city":"CRAIG","lat":"40.52","long":"-107.55"},{"city":"CRAWFORD","lat":"38.7","long":"-107.6"},{"city":"CREEDE","lat":"37.85","long":"-106.92"},{"city":"CRESTED BUTTE","lat":"38.87","long":"-106.98"},{"city":"CRESTONE","lat":"37.99","long":"-105.69"},{"city":"CRIPPLE CREEK","lat":"38.74","long":"-105.17"},{"city":"CROOK","lat":"40.85","long":"-102.8"},{"city":"CROWLEY","lat":"38.19","long":"-103.85"},{"city":"DACONO","lat":"40.07","long":"-104.94"},{"city":"DE BEQUE","lat":"39.33","long":"-108.21"},{"city":"DEER TRAIL","lat":"39.61","long":"-104.04"},{"city":"DEL NORTE","lat":"37.67","long":"-106.35"},{"city":"DELTA","lat":"38.74","long":"-108.07"},{"city":"DENVER","lat":"39.76","long":"-104.87"},{"city":"DILLON","lat":"39.62","long":"-106.03"},{"city":"DINOSAUR","lat":"40.24","long":"-109"},{"city":"DIVIDE","lat":"38.94","long":"-105.16"},{"city":"DOLORES","lat":"37.47","long":"-108.49"},{"city":"DOVE CREEK","lat":"37.76","long":"-108.9"},{"city":"DRAKE","lat":"40.43","long":"-105.33"},{"city":"DUMONT","lat":"39.78","long":"-105.6"},{"city":"DUPONT","lat":"39.84","long":"-104.92"},{"city":"DURANGO","lat":"37.27","long":"-107.88"},{"city":"EADS","lat":"38.48","long":"-102.77"},{"city":"EAGLE","lat":"39.65","long":"-106.82"},{"city":"EASTLAKE","lat":"39.92","long":"-104.96"},{"city":"EATON","lat":"40.52","long":"-104.71"},{"city":"ECKERT","lat":"38.84","long":"-107.95"},{"city":"ECKLEY","lat":"40.11","long":"-102.48"},{"city":"EDWARDS","lat":"39.65","long":"-106.6"},{"city":"EGNAR","lat":"37.92","long":"-108.93"},{"city":"ELBERT","lat":"39.22","long":"-104.53"},{"city":"ELDORADO SPRINGS","lat":"39.93","long":"-105.27"},{"city":"ELIZABETH","lat":"39.36","long":"-104.6"},{"city":"EMPIRE","lat":"39.75","long":"-105.68"},{"city":"ENGLEWOOD","lat":"39.64","long":"-104.99"},{"city":"ERIE","lat":"40.02","long":"-105.04"},{"city":"ESTES PARK","lat":"40.37","long":"-105.52"},{"city":"EVANS","lat":"40.37","long":"-104.69"},{"city":"EVERGREEN","lat":"39.63","long":"-105.34"},{"city":"FAIRPLAY","lat":"39.22","long":"-105.99"},{"city":"FIRESTONE","lat":"40.12","long":"-104.93"},{"city":"FLAGLER","lat":"39.29","long":"-103.06"},{"city":"FLEMING","lat":"40.68","long":"-102.84"},{"city":"FLORENCE","lat":"38.38","long":"-105.11"},{"city":"FLORISSANT","lat":"38.95","long":"-105.29"},{"city":"FORT COLLINS","lat":"40.55","long":"-105.06"},{"city":"FORT GARLAND","lat":"37.43","long":"-105.43"},{"city":"FORT LUPTON","lat":"40.08","long":"-104.8"},{"city":"FORT LYON","lat":"38.1","long":"-103.15"},{"city":"FORT MORGAN","lat":"40.26","long":"-103.79"},{"city":"FOUNTAIN","lat":"38.66","long":"-104.69"},{"city":"FOWLER","lat":"38.12","long":"-104.02"},{"city":"FRANKTOWN","lat":"39.38","long":"-104.75"},{"city":"FRASER","lat":"39.93","long":"-105.79"},{"city":"FREDERICK","lat":"40.1","long":"-104.94"},{"city":"FRISCO","lat":"39.57","long":"-106.09"},{"city":"FRUITA","lat":"39.15","long":"-108.72"},{"city":"GALETON","lat":"40.52","long":"-104.58"},{"city":"GARDNER","lat":"37.78","long":"-105.17"},{"city":"GATEWAY","lat":"38.68","long":"-108.99"},{"city":"GENOA","lat":"39.27","long":"-103.49"},{"city":"GEORGETOWN","lat":"39.71","long":"-105.69"},{"city":"GILCREST","lat":"40.28","long":"-104.78"},{"city":"GILL","lat":"40.45","long":"-104.53"},{"city":"GLADE PARK","lat":"39","long":"-108.73"},{"city":"GLEN HAVEN","lat":"40.45","long":"-105.43"},{"city":"GLENWOOD SPRINGS","lat":"39.54","long":"-107.33"},{"city":"GOLDEN","lat":"39.73","long":"-105.21"},{"city":"GRANADA","lat":"38.06","long":"-102.31"},{"city":"GRANBY","lat":"40.08","long":"-105.93"},{"city":"GRAND JUNCTION","lat":"39.08","long":"-108.55"},{"city":"GRAND LAKE","lat":"40.25","long":"-105.82"},{"city":"GRANITE","lat":"39.05","long":"-106.27"},{"city":"GRANT","lat":"39.45","long":"-105.67"},{"city":"GREELEY","lat":"40.42","long":"-104.74"},{"city":"GREEN MOUNTAIN FALLS","lat":"38.93","long":"-105.02"},{"city":"GROVER","lat":"40.86","long":"-104.22"},{"city":"GUFFEY","lat":"38.75","long":"-105.53"},{"city":"GUNNISON","lat":"38.54","long":"-106.92"},{"city":"GYPSUM","lat":"39.64","long":"-106.94"},{"city":"HAMILTON","lat":"40.37","long":"-107.6"},{"city":"HARTMAN","lat":"38.12","long":"-102.21"},{"city":"HARTSEL","lat":"39.02","long":"-105.8"},{"city":"HASTY","lat":"38.12","long":"-102.97"},{"city":"HASWELL","lat":"38.45","long":"-103.16"},{"city":"HAXTUN","lat":"40.64","long":"-102.62"},{"city":"HAYDEN","lat":"40.48","long":"-107.26"},{"city":"HENDERSON","lat":"39.92","long":"-104.87"},{"city":"HEREFORD","lat":"40.97","long":"-104.3"},{"city":"HESPERUS","lat":"37.28","long":"-108.03"},{"city":"HILLROSE","lat":"40.32","long":"-103.52"},{"city":"HILLSIDE","lat":"38.27","long":"-105.6"},{"city":"HOEHNE","lat":"37.28","long":"-104.38"},{"city":"HOLLY","lat":"38.05","long":"-102.12"},{"city":"HOLYOKE","lat":"40.58","long":"-102.3"},{"city":"HOMELAKE","lat":"37.55","long":"-106.05"},{"city":"HOOPER","lat":"37.74","long":"-105.87"},{"city":"HOT SULPHUR SPRINGS","lat":"40.07","long":"-106.09"},{"city":"HOTCHKISS","lat":"38.8","long":"-107.71"},{"city":"HOWARD","lat":"38.45","long":"-105.84"},{"city":"HUDSON","lat":"40.07","long":"-104.64"},{"city":"HUGO","lat":"39.13","long":"-103.46"},{"city":"HYGIENE","lat":"40.18","long":"-105.17"},{"city":"IDAHO SPRINGS","lat":"39.74","long":"-105.51"},{"city":"IDALIA","lat":"39.7","long":"-102.3"},{"city":"IDLEDALE","lat":"39.67","long":"-105.23"},{"city":"IGNACIO","lat":"37.11","long":"-107.63"},{"city":"ILIFF","lat":"40.75","long":"-103.06"},{"city":"INDIAN HILLS","lat":"39.62","long":"-105.23"},{"city":"JAMESTOWN","lat":"40.11","long":"-105.39"},{"city":"JAROSO","lat":"37","long":"-105.63"},{"city":"JEFFERSON","lat":"39.38","long":"-105.8"},{"city":"JOES","lat":"39.65","long":"-102.68"},{"city":"JOHNSTOWN","lat":"40.33","long":"-104.91"},{"city":"JULESBURG","lat":"40.98","long":"-102.26"},{"city":"KARVAL","lat":"38.73","long":"-103.53"},{"city":"KEENESBURG","lat":"40.1","long":"-104.51"},{"city":"KERSEY","lat":"40.38","long":"-104.56"},{"city":"KIM","lat":"37.24","long":"-103.35"},{"city":"KIOWA","lat":"39.34","long":"-104.46"},{"city":"KIRK","lat":"39.62","long":"-102.6"},{"city":"KIT CARSON","lat":"38.76","long":"-102.79"},{"city":"KITTREDGE","lat":"39.65","long":"-105.3"},{"city":"KREMMLING","lat":"40.05","long":"-106.37"},{"city":"LA JARA","lat":"37.27","long":"-105.96"},{"city":"LA JUNTA","lat":"37.98","long":"-103.54"},{"city":"LA SALLE","lat":"40.34","long":"-104.7"},{"city":"LA VETA","lat":"37.51","long":"-105"},{"city":"LAFAYETTE","lat":"39.99","long":"-105.09"},{"city":"LAKE CITY","lat":"38.07","long":"-107.3"},{"city":"LAKE GEORGE","lat":"38.98","long":"-105.37"},{"city":"LAMAR","lat":"38.08","long":"-102.61"},{"city":"LAPORTE","lat":"40.62","long":"-105.13"},{"city":"LARKSPUR","lat":"39.18","long":"-104.89"},{"city":"LAS ANIMAS","lat":"38.06","long":"-103.22"},{"city":"LAZEAR","lat":"38.78","long":"-107.77"},{"city":"LEADVILLE","lat":"39.24","long":"-106.29"},{"city":"LEWIS","lat":"37.5","long":"-108.67"},{"city":"LIMON","lat":"39.26","long":"-103.68"},{"city":"LINDON","lat":"39.73","long":"-103.4"},{"city":"LITTLETON","lat":"39.59","long":"-105.01"},{"city":"LIVERMORE","lat":"40.75","long":"-105.23"},{"city":"LOG LANE VILLAGE","lat":"40.27","long":"-103.82"},{"city":"LOMA","lat":"39.2","long":"-108.82"},{"city":"LONE TREE","lat":"39.59","long":"-105.01"},{"city":"LONGMONT","lat":"40.17","long":"-105.11"},{"city":"LOUISVILLE","lat":"39.96","long":"-105.14"},{"city":"LOUVIERS","lat":"39.47","long":"-105"},{"city":"LOVELAND","lat":"40.41","long":"-105.07"},{"city":"LUCERNE","lat":"40.48","long":"-104.68"},{"city":"LYONS","lat":"40.22","long":"-105.26"},{"city":"MACK","lat":"39.22","long":"-108.87"},{"city":"MANASSA","lat":"37.17","long":"-105.93"},{"city":"MANCOS","lat":"37.34","long":"-108.29"},{"city":"MANITOU SPRINGS","lat":"38.85","long":"-104.91"},{"city":"MANZANOLA","lat":"38.1","long":"-103.86"},{"city":"MARVEL","lat":"37.12","long":"-108.13"},{"city":"MASONVILLE","lat":"40.48","long":"-105.2"},{"city":"MATHESON","lat":"39.17","long":"-103.98"},{"city":"MAYBELL","lat":"40.52","long":"-108.08"},{"city":"MC CLAVE","lat":"38.19","long":"-102.93"},{"city":"MC COY","lat":"39.92","long":"-106.72"},{"city":"MEAD","lat":"40.23","long":"-104.98"},{"city":"MEEKER","lat":"40.05","long":"-107.89"},{"city":"MEREDITH","lat":"39.27","long":"-106.59"},{"city":"MERINO","lat":"40.48","long":"-103.35"},{"city":"MESA","lat":"39.17","long":"-108.13"},{"city":"MESA VERDE NATIONAL PARK","lat":"37.18","long":"-108.49"},{"city":"MILLIKEN","lat":"40.31","long":"-104.85"},{"city":"MINTURN","lat":"39.58","long":"-106.42"},{"city":"MODEL","lat":"37.34","long":"-104.27"},{"city":"MOFFAT","lat":"38","long":"-105.9"},{"city":"MOLINA","lat":"39.18","long":"-108.07"},{"city":"MONARCH","lat":"38.53","long":"-106.05"},{"city":"MONTE VISTA","lat":"37.57","long":"-106.14"},{"city":"MONTROSE","lat":"38.49","long":"-107.87"},{"city":"MONUMENT","lat":"39.07","long":"-104.85"},{"city":"MORRISON","lat":"39.65","long":"-105.18"},{"city":"MOSCA","lat":"37.65","long":"-105.88"},{"city":"NATHROP","lat":"38.73","long":"-106.08"},{"city":"NATURITA","lat":"38.21","long":"-108.56"},{"city":"NEDERLAND","lat":"39.96","long":"-105.5"},{"city":"NEW CASTLE","lat":"39.58","long":"-107.53"},{"city":"NEW RAYMER","lat":"40.62","long":"-103.78"},{"city":"NIWOT","lat":"40.09","long":"-105.15"},{"city":"NORWOOD","lat":"38.13","long":"-108.29"},{"city":"NUCLA","lat":"38.26","long":"-108.55"},{"city":"NUNN","lat":"40.7","long":"-104.78"},{"city":"OAK CREEK","lat":"40.27","long":"-106.95"},{"city":"OHIO CITY","lat":"38.54","long":"-106.58"},{"city":"OLATHE","lat":"38.6","long":"-107.98"},{"city":"OLNEY SPRINGS","lat":"38.16","long":"-103.94"},{"city":"OPHIR","lat":"37.85","long":"-107.82"},{"city":"ORCHARD","lat":"40.33","long":"-104.12"},{"city":"ORDWAY","lat":"38.22","long":"-103.75"},{"city":"OTIS","lat":"40.14","long":"-102.96"},{"city":"OURAY","lat":"38.08","long":"-107.69"},{"city":"OVID","lat":"40.95","long":"-102.38"},{"city":"PADRONI","lat":"40.77","long":"-103.17"},{"city":"PAGOSA SPRINGS","lat":"37.24","long":"-107.03"},{"city":"PALISADE","lat":"39.1","long":"-108.35"},{"city":"PALMER LAKE","lat":"39.11","long":"-104.9"},{"city":"PAOLI","lat":"40.61","long":"-102.47"},{"city":"PAONIA","lat":"38.86","long":"-107.59"},{"city":"PARACHUTE","lat":"39.44","long":"-108.05"},{"city":"PARADOX","lat":"38.37","long":"-108.95"},{"city":"PARKER","lat":"39.5","long":"-104.76"},{"city":"PARLIN","lat":"38.5","long":"-106.72"},{"city":"PARSHALL","lat":"40.05","long":"-106.18"},{"city":"PEETZ","lat":"40.96","long":"-103.11"},{"city":"PENROSE","lat":"38.43","long":"-105.01"},{"city":"PEYTON","lat":"39.03","long":"-104.48"},{"city":"PHIPPSBURG","lat":"40.23","long":"-106.93"},{"city":"PIERCE","lat":"40.63","long":"-104.75"},{"city":"PINE","lat":"39.42","long":"-105.33"},{"city":"PINECLIFFE","lat":"39.93","long":"-105.43"},{"city":"PITKIN","lat":"38.6","long":"-106.51"},{"city":"PLACERVILLE","lat":"38.02","long":"-108.07"},{"city":"PLATTEVILLE","lat":"40.21","long":"-104.82"},{"city":"PLEASANT VIEW","lat":"37.58","long":"-108.76"},{"city":"PONCHA SPRINGS","lat":"38.51","long":"-106.07"},{"city":"POWDERHORN","lat":"38.27","long":"-107.08"},{"city":"PRITCHETT","lat":"37.37","long":"-102.85"},{"city":"PUEBLO","lat":"38.27","long":"-104.62"},{"city":"RAMAH","lat":"39.12","long":"-104.16"},{"city":"RAND","lat":"40.45","long":"-106.17"},{"city":"RANGELY","lat":"40.08","long":"-108.77"},{"city":"RED CLIFF","lat":"39.5","long":"-106.36"},{"city":"RED FEATHER LAKES","lat":"40.8","long":"-105.58"},{"city":"REDVALE","lat":"38.18","long":"-108.42"},{"city":"RICO","lat":"37.64","long":"-108.06"},{"city":"RIDGWAY","lat":"38.15","long":"-107.75"},{"city":"RIFLE","lat":"39.53","long":"-107.77"},{"city":"ROCKVALE","lat":"38.36","long":"-105.16"},{"city":"ROCKY FORD","lat":"38.04","long":"-103.72"},{"city":"ROGGEN","lat":"40.17","long":"-104.37"},{"city":"ROLLINSVILLE","lat":"39.92","long":"-105.5"},{"city":"ROMEO","lat":"37.17","long":"-105.98"},{"city":"RUSH","lat":"38.84","long":"-104.08"},{"city":"RYE","lat":"37.92","long":"-104.93"},{"city":"SAGUACHE","lat":"38.08","long":"-106.14"},{"city":"SALIDA","lat":"38.53","long":"-106"},{"city":"SAN LUIS","lat":"37.2","long":"-105.42"},{"city":"SAN PABLO","lat":"37.12","long":"-105.36"},{"city":"SANFORD","lat":"37.25","long":"-105.9"},{"city":"SARGENTS","lat":"38.4","long":"-106.42"},{"city":"SEDALIA","lat":"39.43","long":"-104.97"},{"city":"SEDGWICK","lat":"40.93","long":"-102.52"},{"city":"SEIBERT","lat":"39.29","long":"-102.86"},{"city":"SEVERANCE","lat":"40.52","long":"-104.85"},{"city":"SHAWNEE","lat":"39.42","long":"-105.55"},{"city":"SHERIDAN LAKE","lat":"38.46","long":"-102.29"},{"city":"SILT","lat":"39.54","long":"-107.65"},{"city":"SILVER PLUME","lat":"39.69","long":"-105.72"},{"city":"SILVERTHORNE","lat":"39.65","long":"-106.08"},{"city":"SILVERTON","lat":"37.82","long":"-107.64"},{"city":"SIMLA","lat":"39.14","long":"-104.08"},{"city":"SLATER","lat":"40.99","long":"-107.37"},{"city":"SNOWMASS","lat":"39.33","long":"-106.98"},{"city":"SNOWMASS VILLAGE","lat":"39.19","long":"-106.93"},{"city":"SNYDER","lat":"40.32","long":"-103.58"},{"city":"SOMERSET","lat":"38.92","long":"-107.43"},{"city":"SOUTH FORK","lat":"37.67","long":"-106.64"},{"city":"SPRINGFIELD","lat":"37.4","long":"-102.61"},{"city":"STEAMBOAT SPRINGS","lat":"40.47","long":"-106.82"},{"city":"STERLING","lat":"40.62","long":"-103.19"},{"city":"STONEHAM","lat":"40.63","long":"-103.65"},{"city":"STONINGTON","lat":"37.29","long":"-102.18"},{"city":"STRASBURG","lat":"39.73","long":"-104.3"},{"city":"STRATTON","lat":"39.3","long":"-102.6"},{"city":"SUGAR CITY","lat":"38.23","long":"-103.66"},{"city":"SWINK","lat":"38.01","long":"-103.62"},{"city":"TABERNASH","lat":"39.98","long":"-105.85"},{"city":"TELLURIDE","lat":"37.94","long":"-107.9"},{"city":"THORNTON","lat":"39.76","long":"-104.87"},{"city":"TIMNATH","lat":"40.52","long":"-104.98"},{"city":"TOPONAS","lat":"40.07","long":"-106.8"},{"city":"TOWAOC","lat":"37.2","long":"-108.72"},{"city":"TRINCHERA","lat":"37.05","long":"-104.03"},{"city":"TRINIDAD","lat":"37.16","long":"-104.5"},{"city":"TWIN LAKES","lat":"39.1","long":"-106.47"},{"city":"TWO BUTTES","lat":"37.56","long":"-102.39"},{"city":"U S A F ACADEMY","lat":"38.99","long":"-104.85"},{"city":"VAIL","lat":"39.64","long":"-106.39"},{"city":"VERNON","lat":"39.93","long":"-102.28"},{"city":"VICTOR","lat":"38.7","long":"-105.14"},{"city":"VILAS","lat":"37.37","long":"-102.44"},{"city":"VILLA GROVE","lat":"38.25","long":"-105.95"},{"city":"VONA","lat":"39.3","long":"-102.74"},{"city":"WALDEN","lat":"40.73","long":"-106.28"},{"city":"WALSENBURG","lat":"37.62","long":"-104.77"},{"city":"WALSH","lat":"37.38","long":"-102.28"},{"city":"WARD","lat":"40.07","long":"-105.51"},{"city":"WATKINS","lat":"39.75","long":"-104.6"},{"city":"WELDONA","lat":"40.35","long":"-103.97"},{"city":"WELLINGTON","lat":"40.7","long":"-105"},{"city":"WESTCLIFFE","lat":"38.13","long":"-105.46"},{"city":"WESTMINSTER","lat":"39.88","long":"-105.05"},{"city":"WESTON","lat":"37.13","long":"-105.01"},{"city":"WETMORE","lat":"38.23","long":"-105.08"},{"city":"WHEAT RIDGE","lat":"39.77","long":"-105.09"},{"city":"WHITEWATER","lat":"38.98","long":"-108.43"},{"city":"WIGGINS","lat":"40.23","long":"-104.07"},{"city":"WILD HORSE","lat":"38.82","long":"-103"},{"city":"WILEY","lat":"38.15","long":"-102.71"},{"city":"WINDSOR","lat":"40.48","long":"-104.9"},{"city":"WINTER PARK","lat":"39.88","long":"-105.77"},{"city":"WOLCOTT","lat":"39.7","long":"-106.68"},{"city":"WOODLAND PARK","lat":"38.99","long":"-105.05"},{"city":"WOODROW","lat":"39.98","long":"-103.58"},{"city":"WOODY CREEK","lat":"39.28","long":"-106.88"},{"city":"WRAY","lat":"40.07","long":"-102.22"},{"city":"YAMPA","lat":"40.15","long":"-106.9"},{"city":"YELLOW JACKET","lat":"37.53","long":"-108.72"},{"city":"YODER","lat":"38.84","long":"-104.22"},{"city":"YUMA","lat":"40.12","long":"-102.72"}]