[{"city":"ALACHUA","lat":"29.77","long":"-82.48"},{"city":"ALFORD","lat":"30.69","long":"-85.39"},{"city":"ALTAMONTE SPRINGS","lat":"28.66","long":"-81.39"},{"city":"ALTHA","lat":"30.57","long":"-85.12"},{"city":"ALTOONA","lat":"29.04","long":"-81.59"},{"city":"ALTURAS","lat":"27.79","long":"-81.85"},{"city":"ALVA","lat":"26.71","long":"-81.61"},{"city":"ANNA MARIA","lat":"27.53","long":"-82.73"},{"city":"ANTHONY","lat":"29.28","long":"-82.11"},{"city":"APALACHICOLA","lat":"29.72","long":"-84.99"},{"city":"APOLLO BEACH","lat":"27.78","long":"-82.39"},{"city":"APOPKA","lat":"28.68","long":"-81.51"},{"city":"ARCADIA","lat":"27.21","long":"-81.85"},{"city":"ARCHER","lat":"29.53","long":"-82.51"},{"city":"ARGYLE","lat":"30.71","long":"-86.04"},{"city":"ARIPEKA","lat":"28.43","long":"-82.66"},{"city":"ASTATULA","lat":"28.71","long":"-81.73"},{"city":"ASTOR","lat":"29.14","long":"-81.53"},{"city":"ATLANTIC BEACH","lat":"30.33","long":"-81.4"},{"city":"AUBURNDALE","lat":"28.07","long":"-81.79"},{"city":"AVON PARK","lat":"27.59","long":"-81.5"},{"city":"BABSON PARK","lat":"27.83","long":"-81.52"},{"city":"BAGDAD","lat":"30.58","long":"-87.03"},{"city":"BAKER","lat":"30.79","long":"-86.68"},{"city":"BALM","lat":"27.76","long":"-82.26"},{"city":"BARBERVILLE","lat":"29.18","long":"-81.42"},{"city":"BARTOW","lat":"27.89","long":"-81.84"},{"city":"BASCOM","lat":"30.92","long":"-85.11"},{"city":"BAY PINES","lat":"27.81","long":"-82.77"},{"city":"BELL","lat":"29.75","long":"-82.86"},{"city":"BELLE GLADE","lat":"26.68","long":"-80.67"},{"city":"BELLEAIR BEACH","lat":"27.91","long":"-82.84"},{"city":"BELLEVIEW","lat":"29.05","long":"-82.05"},{"city":"BEVERLY HILLS","lat":"28.91","long":"-82.46"},{"city":"BIG PINE KEY","lat":"24.67","long":"-81.35"},{"city":"BLOUNTSTOWN","lat":"30.44","long":"-85.04"},{"city":"BOCA GRANDE","lat":"26.69","long":"-82.25"},{"city":"BOCA RATON","lat":"26.37","long":"-80.1"},{"city":"BOKEELIA","lat":"26.7","long":"-82.05"},{"city":"BONIFAY","lat":"30.78","long":"-85.68"},{"city":"BONITA SPRINGS","lat":"26.34","long":"-81.78"},{"city":"BOSTWICK","lat":"29.77","long":"-81.63"},{"city":"BOWLING GREEN","lat":"27.63","long":"-81.82"},{"city":"BOYNTON BEACH","lat":"26.52","long":"-80.08"},{"city":"BRADENTON","lat":"27.48","long":"-82.57"},{"city":"BRADENTON BEACH","lat":"27.46","long":"-82.69"},{"city":"BRADLEY","lat":"27.79","long":"-81.85"},{"city":"BRANDON","lat":"27.94","long":"-82.29"},{"city":"BRANFORD","lat":"29.96","long":"-82.92"},{"city":"BRISTOL","lat":"30.42","long":"-84.97"},{"city":"BRONSON","lat":"29.44","long":"-82.63"},{"city":"BROOKER","lat":"29.88","long":"-82.33"},{"city":"BROOKSVILLE","lat":"28.55","long":"-82.39"},{"city":"BRYCEVILLE","lat":"30.38","long":"-81.93"},{"city":"BUNNELL","lat":"29.46","long":"-81.25"},{"city":"BUSHNELL","lat":"28.66","long":"-82.11"},{"city":"CALLAHAN","lat":"30.56","long":"-81.83"},{"city":"CAMPBELLTON","lat":"30.95","long":"-85.39"},{"city":"CANAL POINT","lat":"26.86","long":"-80.63"},{"city":"CANDLER","lat":"29.04","long":"-81.89"},{"city":"CANTONMENT","lat":"30.6","long":"-87.34"},{"city":"CAPE CANAVERAL","lat":"28.4","long":"-80.6"},{"city":"CAPE CORAL","lat":"26.63","long":"-81.99"},{"city":"CAPTIVA","lat":"26.58","long":"-82.21"},{"city":"CARRABELLE","lat":"29.84","long":"-84.67"},{"city":"CARYVILLE","lat":"30.77","long":"-85.81"},{"city":"CASSADAGA","lat":"28.96","long":"-81.23"},{"city":"CASSELBERRY","lat":"28.66","long":"-81.32"},{"city":"CEDAR KEY","lat":"29.14","long":"-83.03"},{"city":"CENTER HILL","lat":"28.64","long":"-81.99"},{"city":"CENTURY","lat":"30.97","long":"-87.26"},{"city":"CHATTAHOOCHEE","lat":"30.69","long":"-84.83"},{"city":"CHIEFLAND","lat":"29.47","long":"-82.86"},{"city":"CHIPLEY","lat":"30.77","long":"-85.54"},{"city":"CHOKOLOSKEE","lat":"25.83","long":"-81.35"},{"city":"CHRISTMAS","lat":"28.53","long":"-81.02"},{"city":"CITRA","lat":"29.41","long":"-82.11"},{"city":"CLARCONA","lat":"28.61","long":"-81.49"},{"city":"CLARKSVILLE","lat":"30.43","long":"-85.18"},{"city":"CLEARWATER","lat":"27.97","long":"-82.76"},{"city":"CLEARWATER BEACH","lat":"27.98","long":"-82.82"},{"city":"CLERMONT","lat":"28.55","long":"-81.75"},{"city":"CLEWISTON","lat":"26.75","long":"-80.93"},{"city":"COCOA","lat":"28.37","long":"-80.75"},{"city":"COCOA BEACH","lat":"28.33","long":"-80.62"},{"city":"COCONUT CREEK","lat":"26.23","long":"-80.13"},{"city":"COLEMAN","lat":"28.8","long":"-82.06"},{"city":"COPELAND","lat":"25.96","long":"-81.35"},{"city":"CORAL GABLES","lat":"25.77","long":"-80.2"},{"city":"CORAL SPRINGS","lat":"26.23","long":"-80.13"},{"city":"CORTEZ","lat":"27.46","long":"-82.67"},{"city":"COTTONDALE","lat":"30.79","long":"-85.37"},{"city":"CRAWFORDVILLE","lat":"30.17","long":"-84.37"},{"city":"CRESCENT CITY","lat":"29.43","long":"-81.51"},{"city":"CRESTVIEW","lat":"30.75","long":"-86.57"},{"city":"CROSS CITY","lat":"29.63","long":"-83.12"},{"city":"CRYSTAL BEACH","lat":"28.08","long":"-82.76"},{"city":"CRYSTAL RIVER","lat":"28.9","long":"-82.59"},{"city":"CRYSTAL SPRINGS","lat":"28.18","long":"-82.15"},{"city":"CYPRESS","lat":"30.71","long":"-85.07"},{"city":"DADE CITY","lat":"28.36","long":"-82.19"},{"city":"DANIA","lat":"26.05","long":"-80.14"},{"city":"DAVENPORT","lat":"28.16","long":"-81.6"},{"city":"DAY","lat":"30.19","long":"-83.29"},{"city":"DAYTONA BEACH","lat":"29.19","long":"-81.05"},{"city":"DE LEON SPRINGS","lat":"29.11","long":"-81.35"},{"city":"DEBARY","lat":"28.88","long":"-81.32"},{"city":"DEERFIELD BEACH","lat":"26.31","long":"-80.12"},{"city":"DEFUNIAK SPRINGS","lat":"30.74","long":"-86.19"},{"city":"DELAND","lat":"29.05","long":"-81.31"},{"city":"DELRAY BEACH","lat":"26.45","long":"-80.08"},{"city":"DELTONA","lat":"28.9","long":"-81.2"},{"city":"DESTIN","lat":"30.4","long":"-86.49"},{"city":"DOCTORS INLET","lat":"30.12","long":"-81.76"},{"city":"DOVER","lat":"27.99","long":"-82.22"},{"city":"DUNDEE","lat":"28.02","long":"-81.62"},{"city":"DUNEDIN","lat":"28.02","long":"-82.77"},{"city":"DUNNELLON","lat":"29.04","long":"-82.44"},{"city":"DURANT","lat":"27.9","long":"-82.24"},{"city":"EAGLE LAKE","lat":"27.97","long":"-81.75"},{"city":"EARLETON","lat":"29.71","long":"-82.11"},{"city":"EAST PALATKA","lat":"29.65","long":"-81.59"},{"city":"EASTLAKE WEIR","lat":"29.04","long":"-81.89"},{"city":"EASTPOINT","lat":"29.75","long":"-84.86"},{"city":"EATON PARK","lat":"28.2","long":"-81.91"},{"city":"EBRO","lat":"30.44","long":"-85.88"},{"city":"EDGAR","lat":"29.61","long":"-81.89"},{"city":"EDGEWATER","lat":"28.96","long":"-80.9"},{"city":"EGLIN AFB","lat":"30.46","long":"-86.54"},{"city":"EL JOBEAN","lat":"26.89","long":"-82.05"},{"city":"ELFERS","lat":"28.21","long":"-82.72"},{"city":"ELKTON","lat":"29.78","long":"-81.42"},{"city":"ELLENTON","lat":"27.52","long":"-82.52"},{"city":"ENGLEWOOD","lat":"26.95","long":"-82.35"},{"city":"ESTERO","lat":"26.44","long":"-81.81"},{"city":"EUSTIS","lat":"28.85","long":"-81.68"},{"city":"EVERGLADES CITY","lat":"25.86","long":"-81.38"},{"city":"EVINSTON","lat":"29.52","long":"-82.27"},{"city":"FAIRFIELD","lat":"29.37","long":"-82.28"},{"city":"FELDA","lat":"26.54","long":"-81.43"},{"city":"FELLSMERE","lat":"27.76","long":"-80.59"},{"city":"FERNANDINA BEACH","lat":"30.65","long":"-81.44"},{"city":"FERNDALE","lat":"28.62","long":"-81.69"},{"city":"FLAGLER BEACH","lat":"29.47","long":"-81.13"},{"city":"FLEMING ISLAND","lat":"30.16","long":"-81.7"},{"city":"FLORAHOME","lat":"29.73","long":"-81.88"},{"city":"FLORAL CITY","lat":"28.74","long":"-82.29"},{"city":"FORT LAUDERDALE","lat":"26.14","long":"-80.13"},{"city":"FORT MC COY","lat":"29.34","long":"-81.85"},{"city":"FORT MEADE","lat":"27.75","long":"-81.79"},{"city":"FORT MYERS","lat":"26.63","long":"-81.85"},{"city":"FORT MYERS BEACH","lat":"26.48","long":"-81.95"},{"city":"FORT OGDEN","lat":"27.09","long":"-81.95"},{"city":"FORT PIERCE","lat":"27.44","long":"-80.32"},{"city":"FORT WALTON BEACH","lat":"30.42","long":"-86.61"},{"city":"FORT WHITE","lat":"29.92","long":"-82.71"},{"city":"FOUNTAIN","lat":"30.47","long":"-85.42"},{"city":"FREEPORT","lat":"30.5","long":"-86.13"},{"city":"FROSTPROOF","lat":"27.74","long":"-81.53"},{"city":"FRUITLAND PARK","lat":"28.85","long":"-81.9"},{"city":"GAINESVILLE","lat":"29.67","long":"-82.33"},{"city":"GENEVA","lat":"28.73","long":"-81.11"},{"city":"GEORGETOWN","lat":"29.39","long":"-81.63"},{"city":"GIBSONTON","lat":"27.84","long":"-82.37"},{"city":"GLEN SAINT MARY","lat":"30.27","long":"-82.16"},{"city":"GLENWOOD","lat":"29.08","long":"-81.35"},{"city":"GOLDENROD","lat":"28.61","long":"-81.29"},{"city":"GONZALEZ","lat":"30.57","long":"-87.29"},{"city":"GOODLAND","lat":"25.92","long":"-81.66"},{"city":"GOTHA","lat":"28.54","long":"-81.52"},{"city":"GRACEVILLE","lat":"30.96","long":"-85.51"},{"city":"GRAHAM","lat":"29.88","long":"-82.24"},{"city":"GRAND ISLAND","lat":"28.88","long":"-81.73"},{"city":"GRAND RIDGE","lat":"30.71","long":"-85.01"},{"city":"GRANDIN","lat":"29.72","long":"-81.92"},{"city":"GRANT","lat":"27.92","long":"-80.52"},{"city":"GREEN COVE SPRINGS","lat":"29.98","long":"-81.67"},{"city":"GREENACRES","lat":"26.61","long":"-80.05"},{"city":"GREENSBORO","lat":"30.57","long":"-84.74"},{"city":"GREENVILLE","lat":"30.46","long":"-83.63"},{"city":"GREENWOOD","lat":"30.87","long":"-85.16"},{"city":"GRETNA","lat":"30.61","long":"-84.66"},{"city":"GROVELAND","lat":"28.56","long":"-81.85"},{"city":"GULF BREEZE","lat":"30.36","long":"-87.17"},{"city":"GULF HAMMOCK","lat":"29.25","long":"-82.7"},{"city":"HAINES CITY","lat":"28.1","long":"-81.62"},{"city":"HALLANDALE","lat":"25.98","long":"-80.14"},{"city":"HAMPTON","lat":"29.86","long":"-82.13"},{"city":"HASTINGS","lat":"29.71","long":"-81.5"},{"city":"HAVANA","lat":"30.62","long":"-84.41"},{"city":"HAWTHORNE","lat":"29.59","long":"-82.08"},{"city":"HERNANDO","lat":"28.9","long":"-82.37"},{"city":"HIALEAH","lat":"25.86","long":"-80.29"},{"city":"HIGH SPRINGS","lat":"29.82","long":"-82.59"},{"city":"HIGHLAND CITY","lat":"27.96","long":"-81.87"},{"city":"HILLIARD","lat":"30.69","long":"-81.92"},{"city":"HOBE SOUND","lat":"27.07","long":"-80.13"},{"city":"HOLDER","lat":"28.96","long":"-82.41"},{"city":"HOLIDAY","lat":"28.18","long":"-82.74"},{"city":"HOLLISTER","lat":"29.62","long":"-81.81"},{"city":"HOLLYWOOD","lat":"26.02","long":"-80.16"},{"city":"HOLMES BEACH","lat":"27.51","long":"-82.71"},{"city":"HOLT","lat":"30.72","long":"-86.67"},{"city":"HOMELAND","lat":"27.79","long":"-81.85"},{"city":"HOMESTEAD","lat":"25.46","long":"-80.45"},{"city":"HOMOSASSA","lat":"28.78","long":"-82.61"},{"city":"HOMOSASSA SPRINGS","lat":"28.79","long":"-82.54"},{"city":"HORSESHOE BEACH","lat":"29.44","long":"-83.28"},{"city":"HOSFORD","lat":"30.38","long":"-84.79"},{"city":"HOWEY IN THE HILLS","lat":"28.71","long":"-81.77"},{"city":"HUDSON","lat":"28.35","long":"-82.69"},{"city":"HURLBURT FIELD","lat":"30.42","long":"-86.69"},{"city":"IMMOKALEE","lat":"26.41","long":"-81.42"},{"city":"INDIALANTIC","lat":"28.08","long":"-80.56"},{"city":"INDIAN LAKE ESTATES","lat":"27.87","long":"-81.47"},{"city":"INDIAN ROCKS BEACH","lat":"27.88","long":"-82.84"},{"city":"INDIANTOWN","lat":"27.03","long":"-80.46"},{"city":"INGLIS","lat":"29.03","long":"-82.65"},{"city":"INTERCESSION CITY","lat":"28.26","long":"-81.5"},{"city":"INTERLACHEN","lat":"29.61","long":"-81.89"},{"city":"INVERNESS","lat":"28.83","long":"-82.34"},{"city":"ISLAMORADA","lat":"24.92","long":"-80.63"},{"city":"ISLAND GROVE","lat":"29.58","long":"-82.12"},{"city":"ISTACHATTA","lat":"28.65","long":"-82.3"},{"city":"JACKSONVILLE","lat":"30.33","long":"-81.65"},{"city":"JACKSONVILLE BEACH","lat":"30.29","long":"-81.39"},{"city":"JASPER","lat":"30.51","long":"-82.95"},{"city":"JAY","lat":"30.95","long":"-87.15"},{"city":"JENNINGS","lat":"30.6","long":"-83.1"},{"city":"JENSEN BEACH","lat":"27.23","long":"-80.23"},{"city":"JUPITER","lat":"26.92","long":"-80.1"},{"city":"KATHLEEN","lat":"28.11","long":"-82.02"},{"city":"KENANSVILLE","lat":"27.88","long":"-80.99"},{"city":"KEY BISCAYNE","lat":"25.68","long":"-80.16"},{"city":"KEY COLONY BEACH","lat":"24.72","long":"-81.02"},{"city":"KEY LARGO","lat":"25.08","long":"-80.44"},{"city":"KEY WEST","lat":"24.55","long":"-81.78"},{"city":"KEYSTONE HEIGHTS","lat":"29.78","long":"-82.03"},{"city":"KILLARNEY","lat":"28.54","long":"-81.65"},{"city":"KISSIMMEE","lat":"28.3","long":"-81.41"},{"city":"LA CROSSE","lat":"29.84","long":"-82.4"},{"city":"LABELLE","lat":"26.64","long":"-81.34"},{"city":"LACOOCHEE","lat":"28.46","long":"-82.16"},{"city":"LADY LAKE","lat":"28.92","long":"-81.92"},{"city":"LAKE ALFRED","lat":"28.09","long":"-81.72"},{"city":"LAKE BUTLER","lat":"30.02","long":"-82.33"},{"city":"LAKE CITY","lat":"30.19","long":"-82.64"},{"city":"LAKE COMO","lat":"29.48","long":"-81.57"},{"city":"LAKE GENEVA","lat":"29.77","long":"-82.01"},{"city":"LAKE HAMILTON","lat":"28.04","long":"-81.62"},{"city":"LAKE HARBOR","lat":"26.7","long":"-80.83"},{"city":"LAKE HELEN","lat":"28.98","long":"-81.23"},{"city":"LAKE MARY","lat":"28.75","long":"-81.33"},{"city":"LAKE MONROE","lat":"28.84","long":"-81.27"},{"city":"LAKE PANASOFFKEE","lat":"28.79","long":"-82.13"},{"city":"LAKE PLACID","lat":"27.29","long":"-81.36"},{"city":"LAKE WALES","lat":"27.9","long":"-81.58"},{"city":"LAKE WORTH","lat":"26.58","long":"-80.22"},{"city":"LAKELAND","lat":"28.04","long":"-81.96"},{"city":"LAKESHORE","lat":"27.87","long":"-81.47"},{"city":"LAMONT","lat":"30.37","long":"-83.81"},{"city":"LANARK VILLAGE","lat":"29.88","long":"-84.59"},{"city":"LAND O LAKES","lat":"28.24","long":"-82.49"},{"city":"LARGO","lat":"27.9","long":"-82.78"},{"city":"LAUREL","lat":"27.14","long":"-82.46"},{"city":"LAUREL HILL","lat":"30.96","long":"-86.45"},{"city":"LAWTEY","lat":"30.04","long":"-82.07"},{"city":"LECANTO","lat":"28.85","long":"-82.48"},{"city":"LEE","lat":"30.41","long":"-83.3"},{"city":"LEESBURG","lat":"28.8","long":"-81.88"},{"city":"LEHIGH ACRES","lat":"26.6","long":"-81.63"},{"city":"LITHIA","lat":"27.85","long":"-82.17"},{"city":"LIVE OAK","lat":"30.29","long":"-82.98"},{"city":"LLOYD","lat":"30.47","long":"-84.02"},{"city":"LOCHLOOSA","lat":"29.51","long":"-82.1"},{"city":"LONG KEY","lat":"24.82","long":"-80.81"},{"city":"LONGBOAT KEY","lat":"27.37","long":"-82.62"},{"city":"LONGWOOD","lat":"28.7","long":"-81.34"},{"city":"LORIDA","lat":"27.45","long":"-81.26"},{"city":"LOUGHMAN","lat":"28.23","long":"-81.57"},{"city":"LOWELL","lat":"29.32","long":"-82.19"},{"city":"LOXAHATCHEE","lat":"26.78","long":"-80.43"},{"city":"LULU","lat":"30.1","long":"-82.49"},{"city":"LUTZ","lat":"28.13","long":"-82.46"},{"city":"LYNN HAVEN","lat":"30.24","long":"-85.65"},{"city":"MACCLENNY","lat":"30.28","long":"-82.12"},{"city":"MADISON","lat":"30.46","long":"-83.41"},{"city":"MAITLAND","lat":"28.62","long":"-81.36"},{"city":"MALABAR","lat":"27.98","long":"-80.58"},{"city":"MALONE","lat":"30.95","long":"-85.16"},{"city":"MANGO","lat":"27.99","long":"-82.3"},{"city":"MARATHON","lat":"24.71","long":"-81.08"},{"city":"MARATHON SHORES","lat":"24.72","long":"-81.04"},{"city":"MARCO ISLAND","lat":"25.94","long":"-81.73"},{"city":"MARGATE","lat":"26.23","long":"-80.13"},{"city":"MARIANNA","lat":"30.77","long":"-85.23"},{"city":"MARY ESTHER","lat":"30.41","long":"-86.66"},{"city":"MASCOTTE","lat":"28.57","long":"-81.88"},{"city":"MAYO","lat":"30.05","long":"-83.17"},{"city":"MC ALPIN","lat":"30.13","long":"-82.96"},{"city":"MC DAVID","lat":"30.86","long":"-87.46"},{"city":"MC INTOSH","lat":"29.44","long":"-82.22"},{"city":"MELBOURNE","lat":"28.08","long":"-80.6"},{"city":"MELBOURNE BEACH","lat":"28.06","long":"-80.55"},{"city":"MELROSE","lat":"29.7","long":"-82.05"},{"city":"MERRITT ISLAND","lat":"28.32","long":"-80.68"},{"city":"MEXICO BEACH","lat":"29.94","long":"-85.4"},{"city":"MIAMI","lat":"25.77","long":"-80.2"},{"city":"MIAMI BEACH","lat":"25.77","long":"-80.2"},{"city":"MIAMI GARDENS","lat":"25.93","long":"-80.26"},{"city":"MICANOPY","lat":"29.5","long":"-82.28"},{"city":"MID FLORIDA","lat":"28.75","long":"-81.67"},{"city":"MIDDLEBURG","lat":"30.05","long":"-81.9"},{"city":"MIDWAY","lat":"30.49","long":"-84.46"},{"city":"MILLIGAN","lat":"30.75","long":"-86.64"},{"city":"MILTON","lat":"30.63","long":"-87.04"},{"city":"MIMS","lat":"28.68","long":"-80.84"},{"city":"MINNEOLA","lat":"28.57","long":"-81.74"},{"city":"MIRAMAR BEACH","lat":"30.39","long":"-86.31"},{"city":"MOLINO","lat":"30.71","long":"-87.32"},{"city":"MONTICELLO","lat":"30.54","long":"-83.87"},{"city":"MONTVERDE","lat":"28.59","long":"-81.67"},{"city":"MOORE HAVEN","lat":"26.83","long":"-81.09"},{"city":"MORRISTON","lat":"29.27","long":"-82.49"},{"city":"MOSSY HEAD","lat":"30.74","long":"-86.31"},{"city":"MOUNT DORA","lat":"28.8","long":"-81.64"},{"city":"MULBERRY","lat":"27.9","long":"-81.97"},{"city":"MURDOCK","lat":"27","long":"-82.13"},{"city":"MYAKKA CITY","lat":"27.35","long":"-82.16"},{"city":"NALCREST","lat":"27.87","long":"-81.47"},{"city":"NAPLES","lat":"26.14","long":"-81.79"},{"city":"NAVARRE","lat":"30.36","long":"-87.17"},{"city":"NEPTUNE BEACH","lat":"30.31","long":"-81.39"},{"city":"NEW PORT RICHEY","lat":"28.24","long":"-82.71"},{"city":"NEW SMYRNA BEACH","lat":"29.02","long":"-80.92"},{"city":"NEWBERRY","lat":"29.64","long":"-82.61"},{"city":"NICEVILLE","lat":"30.53","long":"-86.48"},{"city":"NICHOLS","lat":"27.79","long":"-81.85"},{"city":"NOBLETON","lat":"28.64","long":"-82.26"},{"city":"NOCATEE","lat":"27.16","long":"-81.89"},{"city":"NOKOMIS","lat":"27.12","long":"-82.43"},{"city":"NOMA","lat":"30.98","long":"-85.61"},{"city":"NORTH FORT MYERS","lat":"26.63","long":"-81.85"},{"city":"NORTH MIAMI BEACH","lat":"25.77","long":"-80.2"},{"city":"NORTH PALM BEACH","lat":"26.81","long":"-80.08"},{"city":"NORTH PORT","lat":"27.04","long":"-82.19"},{"city":"O BRIEN","lat":"30.03","long":"-82.92"},{"city":"OAK HILL","lat":"28.86","long":"-80.85"},{"city":"OAKLAND","lat":"28.55","long":"-81.62"},{"city":"OCALA","lat":"29.18","long":"-82.13"},{"city":"OCHOPEE","lat":"25.9","long":"-81.3"},{"city":"OCKLAWAHA","lat":"29.04","long":"-81.92"},{"city":"OCOEE","lat":"28.57","long":"-81.53"},{"city":"ODESSA","lat":"28.2","long":"-82.59"},{"city":"OKAHUMPKA","lat":"28.74","long":"-81.89"},{"city":"OKEECHOBEE","lat":"27.24","long":"-80.82"},{"city":"OLD TOWN","lat":"29.59","long":"-82.98"},{"city":"OLDSMAR","lat":"28.04","long":"-82.67"},{"city":"OLUSTEE","lat":"30.2","long":"-82.42"},{"city":"ONA","lat":"27.49","long":"-81.92"},{"city":"ONECO","lat":"27.44","long":"-82.54"},{"city":"OPA LOCKA","lat":"25.93","long":"-80.26"},{"city":"ORANGE CITY","lat":"28.93","long":"-81.29"},{"city":"ORANGE LAKE","lat":"29.44","long":"-81.99"},{"city":"ORANGE PARK","lat":"30.16","long":"-81.7"},{"city":"ORANGE SPRINGS","lat":"29.5","long":"-81.94"},{"city":"ORLANDO","lat":"28.5","long":"-81.37"},{"city":"ORMOND BEACH","lat":"29.28","long":"-81.06"},{"city":"OSPREY","lat":"27.19","long":"-82.49"},{"city":"OSTEEN","lat":"28.84","long":"-81.16"},{"city":"OTTER CREEK","lat":"29.32","long":"-82.77"},{"city":"OVIEDO","lat":"28.65","long":"-81.18"},{"city":"OXFORD","lat":"28.92","long":"-82.04"},{"city":"OZONA","lat":"28.08","long":"-82.76"},{"city":"PAHOKEE","lat":"26.81","long":"-80.66"},{"city":"PAISLEY","lat":"28.98","long":"-81.54"},{"city":"PALATKA","lat":"29.64","long":"-81.65"},{"city":"PALM BAY","lat":"27.98","long":"-80.66"},{"city":"PALM BEACH","lat":"26.69","long":"-80.03"},{"city":"PALM BEACH GARDENS","lat":"26.74","long":"-80.12"},{"city":"PALM CITY","lat":"27.16","long":"-80.26"},{"city":"PALM COAST","lat":"29.57","long":"-81.21"},{"city":"PALM HARBOR","lat":"28.08","long":"-82.76"},{"city":"PALMDALE","lat":"26.94","long":"-81.31"},{"city":"PALMETTO","lat":"27.52","long":"-82.57"},{"city":"PANACEA","lat":"30.03","long":"-84.38"},{"city":"PANAMA CITY","lat":"30.17","long":"-85.67"},{"city":"PANAMA CITY BEACH","lat":"30.17","long":"-85.8"},{"city":"PARRISH","lat":"27.58","long":"-82.42"},{"city":"PATRICK AFB","lat":"28.23","long":"-80.6"},{"city":"PAXTON","lat":"30.97","long":"-86.31"},{"city":"PEMBROKE PINES","lat":"26","long":"-80.34"},{"city":"PENNEY FARMS","lat":"29.98","long":"-81.81"},{"city":"PENSACOLA","lat":"30.44","long":"-87.18"},{"city":"PERRY","lat":"30.1","long":"-83.58"},{"city":"PIERSON","lat":"29.23","long":"-81.46"},{"city":"PINELAND","lat":"26.67","long":"-82.14"},{"city":"PINELLAS PARK","lat":"27.85","long":"-82.7"},{"city":"PINETTA","lat":"30.59","long":"-83.35"},{"city":"PLACIDA","lat":"26.83","long":"-82.2"},{"city":"PLANT CITY","lat":"28.01","long":"-82.14"},{"city":"PLANTATION","lat":"26.14","long":"-80.13"},{"city":"PLYMOUTH","lat":"28.69","long":"-81.54"},{"city":"POINT WASHINGTON","lat":"30.37","long":"-86.11"},{"city":"POLK CITY","lat":"28.18","long":"-81.82"},{"city":"POMONA PARK","lat":"29.49","long":"-81.59"},{"city":"POMPANO BEACH","lat":"26.23","long":"-80.13"},{"city":"PONCE DE LEON","lat":"30.72","long":"-85.93"},{"city":"PONTE VEDRA","lat":"30.08","long":"-81.4"},{"city":"PONTE VEDRA BEACH","lat":"30.23","long":"-81.38"},{"city":"PORT CHARLOTTE","lat":"26.98","long":"-82.1"},{"city":"PORT ORANGE","lat":"29.19","long":"-81.05"},{"city":"PORT RICHEY","lat":"28.3","long":"-82.7"},{"city":"PORT SAINT JOE","lat":"29.83","long":"-85.24"},{"city":"PORT SAINT LUCIE","lat":"27.27","long":"-80.35"},{"city":"PORT SALERNO","lat":"27.14","long":"-80.18"},{"city":"PUNTA GORDA","lat":"26.89","long":"-82.05"},{"city":"PUTNAM HALL","lat":"29.73","long":"-81.95"},{"city":"QUINCY","lat":"30.58","long":"-84.58"},{"city":"RAIFORD","lat":"30.06","long":"-82.24"},{"city":"REDDICK","lat":"29.36","long":"-82.19"},{"city":"RIVER RANCH","lat":"27.88","long":"-81.47"},{"city":"RIVERVIEW","lat":"27.84","long":"-82.31"},{"city":"ROCKLEDGE","lat":"28.31","long":"-80.72"},{"city":"ROSELAND","lat":"27.83","long":"-80.48"},{"city":"ROSEMARY BEACH","lat":"30.25","long":"-85.94"},{"city":"ROTONDA WEST","lat":"26.85","long":"-82.29"},{"city":"ROYAL PALM BEACH","lat":"26.74","long":"-80.12"},{"city":"RUSKIN","lat":"27.71","long":"-82.42"},{"city":"SAFETY HARBOR","lat":"28","long":"-82.69"},{"city":"SAINT AUGUSTINE","lat":"29.8","long":"-81.26"},{"city":"SAINT CLOUD","lat":"28.24","long":"-81.28"},{"city":"SAINT JAMES CITY","lat":"26.49","long":"-82.08"},{"city":"SAINT JOHNS","lat":"30.08","long":"-81.59"},{"city":"SAINT LEO","lat":"28.33","long":"-82.25"},{"city":"SAINT MARKS","lat":"30.16","long":"-84.2"},{"city":"SAINT PETERSBURG","lat":"27.75","long":"-82.64"},{"city":"SALEM","lat":"29.88","long":"-83.41"},{"city":"SAN ANTONIO","lat":"28.33","long":"-82.27"},{"city":"SAN MATEO","lat":"29.6","long":"-81.58"},{"city":"SANDERSON","lat":"30.25","long":"-82.27"},{"city":"SANFORD","lat":"28.78","long":"-81.27"},{"city":"SANIBEL","lat":"26.44","long":"-82.1"},{"city":"SANTA ROSA BEACH","lat":"30.37","long":"-86.22"},{"city":"SARASOTA","lat":"27.42","long":"-82.54"},{"city":"SATELLITE BEACH","lat":"28.17","long":"-80.6"},{"city":"SATSUMA","lat":"29.55","long":"-81.65"},{"city":"SCOTTSMOOR","lat":"28.76","long":"-80.87"},{"city":"SEBASTIAN","lat":"27.78","long":"-80.48"},{"city":"SEBRING","lat":"27.49","long":"-81.45"},{"city":"SEFFNER","lat":"27.99","long":"-82.27"},{"city":"SEMINOLE","lat":"27.84","long":"-82.78"},{"city":"SEVILLE","lat":"29.31","long":"-81.49"},{"city":"SHADY GROVE","lat":"30.28","long":"-83.63"},{"city":"SHALIMAR","lat":"30.44","long":"-86.57"},{"city":"SHARPES","lat":"28.43","long":"-80.76"},{"city":"SILVER SPRINGS","lat":"29.22","long":"-82"},{"city":"SNEADS","lat":"30.7","long":"-84.92"},{"city":"SOPCHOPPY","lat":"30.05","long":"-84.48"},{"city":"SORRENTO","lat":"28.81","long":"-81.49"},{"city":"SOUTH BAY","lat":"26.66","long":"-80.71"},{"city":"SPARR","lat":"29.33","long":"-82.11"},{"city":"SPRING HILL","lat":"28.44","long":"-82.56"},{"city":"STARKE","lat":"29.94","long":"-82.11"},{"city":"STEINHATCHEE","lat":"29.67","long":"-83.39"},{"city":"STUART","lat":"27.19","long":"-80.24"},{"city":"SUMATRA","lat":"30.01","long":"-84.97"},{"city":"SUMMERFIELD","lat":"29","long":"-82.03"},{"city":"SUMMERLAND KEY","lat":"24.66","long":"-81.45"},{"city":"SUMTERVILLE","lat":"28.73","long":"-82.01"},{"city":"SUN CITY","lat":"27.68","long":"-82.47"},{"city":"SUN CITY CENTER","lat":"27.72","long":"-82.35"},{"city":"SUWANNEE","lat":"29.32","long":"-83.14"},{"city":"SYDNEY","lat":"27.9","long":"-82.24"},{"city":"TALLAHASSEE","lat":"30.45","long":"-84.28"},{"city":"TALLEVAST","lat":"27.44","long":"-82.51"},{"city":"TAMPA","lat":"27.95","long":"-82.48"},{"city":"TANGERINE","lat":"28.76","long":"-81.62"},{"city":"TARPON SPRINGS","lat":"28.14","long":"-82.78"},{"city":"TAVARES","lat":"28.8","long":"-81.73"},{"city":"TAVERNIER","lat":"25.01","long":"-80.51"},{"city":"TELOGIA","lat":"30.35","long":"-84.81"},{"city":"TERRA CEIA","lat":"27.58","long":"-82.58"},{"city":"THE VILLAGES","lat":"28.92","long":"-81.92"},{"city":"THONOTOSASSA","lat":"28.07","long":"-82.3"},{"city":"TITUSVILLE","lat":"28.58","long":"-80.82"},{"city":"TRENTON","lat":"29.61","long":"-82.81"},{"city":"TRILBY","lat":"28.44","long":"-82.2"},{"city":"UMATILLA","lat":"28.92","long":"-81.66"},{"city":"VALPARAISO","lat":"30.49","long":"-86.5"},{"city":"VALRICO","lat":"27.94","long":"-82.25"},{"city":"VENICE","lat":"27.09","long":"-82.43"},{"city":"VENUS","lat":"27.06","long":"-81.35"},{"city":"VERNON","lat":"30.61","long":"-85.7"},{"city":"VERO BEACH","lat":"27.64","long":"-80.39"},{"city":"WABASSO","lat":"27.75","long":"-80.43"},{"city":"WACISSA","lat":"30.35","long":"-83.98"},{"city":"WALDO","lat":"29.79","long":"-82.17"},{"city":"WAUCHULA","lat":"27.54","long":"-81.8"},{"city":"WAUSAU","lat":"30.63","long":"-85.58"},{"city":"WAVERLY","lat":"27.96","long":"-81.61"},{"city":"WEBSTER","lat":"28.61","long":"-82.05"},{"city":"WEIRSDALE","lat":"28.98","long":"-81.92"},{"city":"WELAKA","lat":"29.48","long":"-81.66"},{"city":"WELLBORN","lat":"30.23","long":"-82.81"},{"city":"WELLINGTON","lat":"26.74","long":"-80.12"},{"city":"WESLEY CHAPEL","lat":"28.23","long":"-82.17"},{"city":"WEST PALM BEACH","lat":"26.74","long":"-80.12"},{"city":"WESTVILLE","lat":"30.76","long":"-85.84"},{"city":"WEWAHITCHKA","lat":"30.26","long":"-85.24"},{"city":"WHITE SPRINGS","lat":"30.33","long":"-82.75"},{"city":"WILDWOOD","lat":"28.85","long":"-82.04"},{"city":"WILLISTON","lat":"29.37","long":"-82.45"},{"city":"WIMAUMA","lat":"27.71","long":"-82.3"},{"city":"WINDERMERE","lat":"28.49","long":"-81.53"},{"city":"WINTER BEACH","lat":"27.71","long":"-80.42"},{"city":"WINTER GARDEN","lat":"28.56","long":"-81.58"},{"city":"WINTER HAVEN","lat":"28.04","long":"-81.72"},{"city":"WINTER PARK","lat":"28.59","long":"-81.34"},{"city":"WINTER SPRINGS","lat":"28.68","long":"-81.27"},{"city":"WOODVILLE","lat":"30.31","long":"-84.26"},{"city":"WORTHINGTON SPRINGS","lat":"29.93","long":"-82.42"},{"city":"YALAHA","lat":"28.74","long":"-81.82"},{"city":"YANKEETOWN","lat":"29.03","long":"-82.71"},{"city":"YOUNGSTOWN","lat":"30.36","long":"-85.43"},{"city":"YULEE","lat":"30.63","long":"-81.57"},{"city":"ZELLWOOD","lat":"28.73","long":"-81.6"},{"city":"ZEPHYRHILLS","lat":"28.23","long":"-82.17"},{"city":"ZOLFO SPRINGS","lat":"27.49","long":"-81.79"}]