[{"city":"ABERDEEN","lat":"37.25","long":"-86.68"},{"city":"ADAIRVILLE","lat":"36.66","long":"-86.85"},{"city":"ADAMS","lat":"38","long":"-82.71"},{"city":"ADOLPHUS","lat":"36.67","long":"-86.27"},{"city":"AGES BROOKSIDE","lat":"36.83","long":"-83.25"},{"city":"ALBANY","lat":"36.69","long":"-85.13"},{"city":"ALEXANDRIA","lat":"38.96","long":"-84.38"},{"city":"ALLEN","lat":"37.61","long":"-82.72"},{"city":"ALLENSVILLE","lat":"36.71","long":"-87.06"},{"city":"ALMO","lat":"36.71","long":"-88.31"},{"city":"ALPHA","lat":"36.76","long":"-85.01"},{"city":"ALVATON","lat":"36.86","long":"-86.35"},{"city":"ANNVILLE","lat":"37.32","long":"-83.96"},{"city":"ARGILLITE","lat":"38.42","long":"-82.81"},{"city":"ARJAY","lat":"36.8","long":"-83.64"},{"city":"ARLINGTON","lat":"36.79","long":"-89.01"},{"city":"ARTEMUS","lat":"36.83","long":"-83.84"},{"city":"ARY","lat":"37.37","long":"-83.14"},{"city":"ASHCAMP","lat":"37.26","long":"-82.43"},{"city":"ASHER","lat":"37.04","long":"-83.4"},{"city":"ASHLAND","lat":"38.45","long":"-82.64"},{"city":"ATHOL","lat":"37.55","long":"-83.57"},{"city":"AUBURN","lat":"36.86","long":"-86.71"},{"city":"AUGUSTA","lat":"38.77","long":"-84"},{"city":"AUSTIN","lat":"36.81","long":"-86.01"},{"city":"AUXIER","lat":"37.73","long":"-82.75"},{"city":"AVAWAM","lat":"37.22","long":"-83.27"},{"city":"BAGDAD","lat":"38.26","long":"-85.05"},{"city":"BANDANA","lat":"37.14","long":"-88.94"},{"city":"BANNER","lat":"37.58","long":"-82.7"},{"city":"BARBOURVILLE","lat":"36.86","long":"-83.88"},{"city":"BARDSTOWN","lat":"37.81","long":"-85.46"},{"city":"BARDWELL","lat":"36.87","long":"-89.01"},{"city":"BARLOW","lat":"37.05","long":"-89.04"},{"city":"BASKETT","lat":"37.78","long":"-87.5"},{"city":"BATTLETOWN","lat":"38.06","long":"-86.3"},{"city":"BAXTER","lat":"36.86","long":"-83.33"},{"city":"BAYS","lat":"37.64","long":"-83.24"},{"city":"BEAR BRANCH","lat":"37.16","long":"-83.54"},{"city":"BEATTYVILLE","lat":"37.58","long":"-83.7"},{"city":"BEAUMONT","lat":"36.86","long":"-85.63"},{"city":"BEAUTY","lat":"37.83","long":"-82.43"},{"city":"BEAVER","lat":"37.39","long":"-82.65"},{"city":"BEAVER DAM","lat":"37.4","long":"-86.87"},{"city":"BEDFORD","lat":"38.59","long":"-85.31"},{"city":"BEE SPRING","lat":"37.28","long":"-86.28"},{"city":"BEECH CREEK","lat":"37.18","long":"-87.12"},{"city":"BEECH GROVE","lat":"37.53","long":"-87.25"},{"city":"BEECHMONT","lat":"37.17","long":"-87.05"},{"city":"BELCHER","lat":"37.34","long":"-82.37"},{"city":"BELFRY","lat":"37.62","long":"-82.26"},{"city":"BELLEVUE","lat":"39.1","long":"-84.47"},{"city":"BELTON","lat":"37.14","long":"-86.96"},{"city":"BENHAM","lat":"36.96","long":"-82.95"},{"city":"BENTON","lat":"36.85","long":"-88.35"},{"city":"BEREA","lat":"37.57","long":"-84.29"},{"city":"BERRY","lat":"38.52","long":"-84.38"},{"city":"BETHANY","lat":"37.74","long":"-83.5"},{"city":"BETHELRIDGE","lat":"37.23","long":"-84.76"},{"city":"BETHLEHEM","lat":"38.4","long":"-85.06"},{"city":"BETSY LAYNE","lat":"37.55","long":"-82.63"},{"city":"BEVERLY","lat":"36.93","long":"-83.53"},{"city":"BEVINSVILLE","lat":"37.33","long":"-82.71"},{"city":"BIG CLIFTY","lat":"37.55","long":"-86.15"},{"city":"BIG CREEK","lat":"37.16","long":"-83.56"},{"city":"BIG LAUREL","lat":"36.97","long":"-83.21"},{"city":"BIGHILL","lat":"37.57","long":"-84.23"},{"city":"BIMBLE","lat":"36.87","long":"-83.82"},{"city":"BLACKEY","lat":"37.14","long":"-82.97"},{"city":"BLACKFORD","lat":"37.44","long":"-87.93"},{"city":"BLAINE","lat":"38.02","long":"-82.85"},{"city":"BLEDSOE","lat":"36.92","long":"-83.36"},{"city":"BLOOMFIELD","lat":"37.91","long":"-85.31"},{"city":"BLUE RIVER","lat":"37.62","long":"-82.84"},{"city":"BOAZ","lat":"36.91","long":"-88.61"},{"city":"BONNIEVILLE","lat":"37.37","long":"-85.9"},{"city":"BONNYMAN","lat":"37.31","long":"-83.22"},{"city":"BOONEVILLE","lat":"37.47","long":"-83.67"},{"city":"BOONS CAMP","lat":"37.83","long":"-82.7"},{"city":"BOSTON","lat":"37.78","long":"-85.66"},{"city":"BOWLING GREEN","lat":"36.97","long":"-86.44"},{"city":"BRADFORDSVILLE","lat":"37.49","long":"-85.14"},{"city":"BRANDENBURG","lat":"37.99","long":"-86.18"},{"city":"BREEDING","lat":"36.95","long":"-85.41"},{"city":"BREMEN","lat":"37.36","long":"-87.21"},{"city":"BRODHEAD","lat":"37.4","long":"-84.41"},{"city":"BRONSTON","lat":"36.98","long":"-84.61"},{"city":"BROOKS","lat":"38.06","long":"-85.71"},{"city":"BROOKSVILLE","lat":"38.68","long":"-84.06"},{"city":"BROWDER","lat":"37.27","long":"-87.01"},{"city":"BROWNSVILLE","lat":"37.18","long":"-86.25"},{"city":"BRYANTS STORE","lat":"36.77","long":"-83.92"},{"city":"BRYANTSVILLE","lat":"37.71","long":"-84.65"},{"city":"BUCKHORN","lat":"37.34","long":"-83.47"},{"city":"BUCKNER","lat":"38.38","long":"-85.43"},{"city":"BUFFALO","lat":"37.51","long":"-85.7"},{"city":"BULAN","lat":"37.29","long":"-83.16"},{"city":"BURDINE","lat":"37.18","long":"-82.6"},{"city":"BURGIN","lat":"37.75","long":"-84.76"},{"city":"BURKESVILLE","lat":"36.79","long":"-85.36"},{"city":"BURLINGTON","lat":"39.02","long":"-84.72"},{"city":"BURNA","lat":"37.21","long":"-88.4"},{"city":"BURNSIDE","lat":"36.98","long":"-84.6"},{"city":"BUSH","lat":"37.09","long":"-83.87"},{"city":"BUSY","lat":"37.25","long":"-83.3"},{"city":"BUTLER","lat":"38.78","long":"-84.37"},{"city":"BYPRO","lat":"37.3","long":"-82.7"},{"city":"CADIZ","lat":"36.86","long":"-87.82"},{"city":"CALHOUN","lat":"37.54","long":"-87.25"},{"city":"CALIFORNIA","lat":"38.91","long":"-84.26"},{"city":"CALVERT CITY","lat":"37.03","long":"-88.35"},{"city":"CALVIN","lat":"36.72","long":"-83.62"},{"city":"CAMPBELLSBURG","lat":"38.52","long":"-85.2"},{"city":"CAMPBELLSVILLE","lat":"37.34","long":"-85.34"},{"city":"CAMPTON","lat":"37.73","long":"-83.54"},{"city":"CANADA","lat":"37.6","long":"-82.32"},{"city":"CANE VALLEY","lat":"37.18","long":"-85.31"},{"city":"CANEYVILLE","lat":"37.42","long":"-86.48"},{"city":"CANMER","lat":"37.28","long":"-85.78"},{"city":"CANNEL CITY","lat":"37.78","long":"-83.27"},{"city":"CANNON","lat":"36.91","long":"-83.85"},{"city":"CARLISLE","lat":"38.31","long":"-84.03"},{"city":"CARRIE","lat":"37.33","long":"-83.03"},{"city":"CARROLLTON","lat":"38.67","long":"-85.16"},{"city":"CARTER","lat":"38.42","long":"-83.1"},{"city":"CATLETTSBURG","lat":"38.41","long":"-82.6"},{"city":"CAVE CITY","lat":"37.13","long":"-85.96"},{"city":"CAWOOD","lat":"36.74","long":"-83.26"},{"city":"CECILIA","lat":"37.66","long":"-85.95"},{"city":"CENTER","lat":"37.13","long":"-85.68"},{"city":"CENTERTOWN","lat":"37.41","long":"-86.99"},{"city":"CENTRAL CITY","lat":"37.29","long":"-87.12"},{"city":"CERULEAN","lat":"36.96","long":"-87.66"},{"city":"CHAPLIN","lat":"37.9","long":"-85.21"},{"city":"CHAPPELL","lat":"37","long":"-83.34"},{"city":"CHAVIES","lat":"37.34","long":"-83.35"},{"city":"CLARKSON","lat":"37.49","long":"-86.22"},{"city":"CLAY","lat":"37.47","long":"-87.82"},{"city":"CLAY CITY","lat":"37.86","long":"-83.92"},{"city":"CLAYHOLE","lat":"37.46","long":"-83.29"},{"city":"CLEARFIELD","lat":"38.16","long":"-83.43"},{"city":"CLEATON","lat":"37.25","long":"-87.09"},{"city":"CLERMONT","lat":"37.91","long":"-85.65"},{"city":"CLIFTY","lat":"36.99","long":"-87.14"},{"city":"CLINTON","lat":"36.66","long":"-88.99"},{"city":"CLOSPLINT","lat":"36.9","long":"-83.06"},{"city":"CLOVERPORT","lat":"37.83","long":"-86.62"},{"city":"COALGOOD","lat":"36.8","long":"-83.23"},{"city":"COLDIRON","lat":"36.82","long":"-83.45"},{"city":"COLUMBIA","lat":"37.09","long":"-85.3"},{"city":"COLUMBUS","lat":"36.75","long":"-89.1"},{"city":"COMBS","lat":"37.26","long":"-83.21"},{"city":"CORBIN","lat":"36.93","long":"-84.1"},{"city":"CORINTH","lat":"38.49","long":"-84.56"},{"city":"CORNETTSVILLE","lat":"37.13","long":"-83.07"},{"city":"CORYDON","lat":"37.73","long":"-87.7"},{"city":"COVINGTON","lat":"39.08","long":"-84.5"},{"city":"COXS CREEK","lat":"37.9","long":"-85.46"},{"city":"CRAB ORCHARD","lat":"37.46","long":"-84.5"},{"city":"CRANKS","lat":"36.76","long":"-83.17"},{"city":"CRAYNE","lat":"37.27","long":"-88.08"},{"city":"CRESTWOOD","lat":"38.33","long":"-85.48"},{"city":"CRITTENDEN","lat":"38.78","long":"-84.6"},{"city":"CROCKETT","lat":"37.98","long":"-83.09"},{"city":"CROFTON","lat":"37.04","long":"-87.48"},{"city":"CROMONA","lat":"37.18","long":"-82.69"},{"city":"CROMWELL","lat":"37.33","long":"-86.8"},{"city":"CUB RUN","lat":"37.3","long":"-86.06"},{"city":"CUMBERLAND","lat":"36.98","long":"-82.98"},{"city":"CUNNINGHAM","lat":"36.89","long":"-88.87"},{"city":"CURDSVILLE","lat":"37.68","long":"-87.36"},{"city":"CUSTER","lat":"37.73","long":"-86.25"},{"city":"CYNTHIANA","lat":"38.38","long":"-84.29"},{"city":"DANA","lat":"37.55","long":"-82.69"},{"city":"DANVILLE","lat":"37.64","long":"-84.77"},{"city":"DAVID","lat":"37.16","long":"-82.95"},{"city":"DAWSON SPRINGS","lat":"37.17","long":"-87.68"},{"city":"DAYHOIT","lat":"36.86","long":"-83.38"},{"city":"DAYTON","lat":"39.11","long":"-84.46"},{"city":"DE MOSSVILLE","lat":"38.74","long":"-84.47"},{"city":"DEANE","lat":"37.24","long":"-82.77"},{"city":"DEBORD","lat":"37.82","long":"-82.55"},{"city":"DELPHIA","lat":"37.02","long":"-83.08"},{"city":"DEMA","lat":"37.43","long":"-82.85"},{"city":"DENNISTON","lat":"37.91","long":"-83.53"},{"city":"DENTON","lat":"38.28","long":"-82.82"},{"city":"DEWITT","lat":"36.87","long":"-83.73"},{"city":"DEXTER","lat":"36.69","long":"-88.16"},{"city":"DICE","lat":"37.36","long":"-83.22"},{"city":"DIXON","lat":"37.51","long":"-87.69"},{"city":"DORTON","lat":"37.27","long":"-82.57"},{"city":"DOVER","lat":"38.75","long":"-83.88"},{"city":"DRAKE","lat":"36.82","long":"-86.39"},{"city":"DRAKESBORO","lat":"37.21","long":"-87.04"},{"city":"DRIFT","lat":"37.48","long":"-82.74"},{"city":"DRY RIDGE","lat":"38.68","long":"-84.59"},{"city":"DUBRE","lat":"36.83","long":"-85.55"},{"city":"DUNBAR","lat":"37.18","long":"-86.76"},{"city":"DUNDEE","lat":"37.55","long":"-86.78"},{"city":"DUNMOR","lat":"37.08","long":"-87.01"},{"city":"DUNNVILLE","lat":"37.2","long":"-85"},{"city":"DWALE","lat":"37.62","long":"-82.72"},{"city":"DWARF","lat":"37.33","long":"-83.12"},{"city":"DYCUSBURG","lat":"37.16","long":"-88.18"},{"city":"EARLINGTON","lat":"37.27","long":"-87.51"},{"city":"EAST BERNSTADT","lat":"37.18","long":"-84.11"},{"city":"EAST POINT","lat":"37.74","long":"-82.79"},{"city":"EASTERN","lat":"37.51","long":"-82.8"},{"city":"EASTVIEW","lat":"37.58","long":"-86.05"},{"city":"EASTWOOD","lat":"38.25","long":"-85.48"},{"city":"EDDYVILLE","lat":"37.07","long":"-88.07"},{"city":"EDMONTON","lat":"36.98","long":"-85.62"},{"city":"EIGHTY EIGHT","lat":"36.91","long":"-85.76"},{"city":"EKRON","lat":"37.93","long":"-86.17"},{"city":"ELIZABETHTOWN","lat":"37.7","long":"-85.87"},{"city":"ELIZAVILLE","lat":"38.42","long":"-83.82"},{"city":"ELK HORN","lat":"37.31","long":"-85.28"},{"city":"ELKFORK","lat":"37.96","long":"-83.13"},{"city":"ELKHORN CITY","lat":"37.3","long":"-82.34"},{"city":"ELKTON","lat":"36.81","long":"-87.15"},{"city":"ELLIOTTVILLE","lat":"38.18","long":"-83.27"},{"city":"EMERSON","lat":"38.38","long":"-83.26"},{"city":"EMINENCE","lat":"38.36","long":"-85.17"},{"city":"EMLYN","lat":"36.7","long":"-84.14"},{"city":"EMMALENA","lat":"37.33","long":"-83.07"},{"city":"EOLIA","lat":"37.05","long":"-82.79"},{"city":"ERILINE","lat":"37.11","long":"-83.75"},{"city":"ERLANGER","lat":"39","long":"-84.58"},{"city":"ERMINE","lat":"37.11","long":"-82.79"},{"city":"ESSIE","lat":"37.06","long":"-83.45"},{"city":"ETOILE","lat":"36.81","long":"-85.91"},{"city":"EUBANK","lat":"37.27","long":"-84.65"},{"city":"EVARTS","lat":"36.86","long":"-83.19"},{"city":"EWING","lat":"38.42","long":"-83.86"},{"city":"EZEL","lat":"37.89","long":"-83.44"},{"city":"FAIRDALE","lat":"38.11","long":"-85.75"},{"city":"FAIRFIELD","lat":"37.93","long":"-85.38"},{"city":"FAIRVIEW","lat":"36.84","long":"-87.31"},{"city":"FALCON","lat":"37.78","long":"-83"},{"city":"FALL ROCK","lat":"37.22","long":"-83.78"},{"city":"FALLS OF ROUGH","lat":"37.6","long":"-86.55"},{"city":"FALMOUTH","lat":"38.67","long":"-84.33"},{"city":"FANCY FARM","lat":"36.75","long":"-88.79"},{"city":"FARMERS","lat":"38.14","long":"-83.54"},{"city":"FARMINGTON","lat":"36.67","long":"-88.53"},{"city":"FEDSCREEK","lat":"37.4","long":"-82.24"},{"city":"FERGUSON","lat":"37.06","long":"-84.59"},{"city":"FINCHVILLE","lat":"38.15","long":"-85.31"},{"city":"FISHERVILLE","lat":"38.16","long":"-85.42"},{"city":"FISTY","lat":"37.33","long":"-83.1"},{"city":"FLAT LICK","lat":"36.82","long":"-83.76"},{"city":"FLATGAP","lat":"37.93","long":"-82.88"},{"city":"FLATWOODS","lat":"38.51","long":"-82.72"},{"city":"FLEMINGSBURG","lat":"38.42","long":"-83.73"},{"city":"FLORENCE","lat":"38.99","long":"-84.64"},{"city":"FORDS BRANCH","lat":"37.32","long":"-82.57"},{"city":"FORDSVILLE","lat":"37.63","long":"-86.71"},{"city":"FOREST HILLS","lat":"37.63","long":"-82.29"},{"city":"FORT CAMPBELL","lat":"36.65","long":"-87.54"},{"city":"FORT KNOX","lat":"37.89","long":"-85.96"},{"city":"FORT THOMAS","lat":"39.08","long":"-84.45"},{"city":"FOSTER","lat":"38.79","long":"-84.21"},{"city":"FOUNTAIN RUN","lat":"36.72","long":"-85.96"},{"city":"FOURMILE","lat":"36.79","long":"-83.74"},{"city":"FRAKES","lat":"36.64","long":"-83.92"},{"city":"FRANKFORT","lat":"38.19","long":"-84.86"},{"city":"FRANKLIN","lat":"36.72","long":"-86.57"},{"city":"FREDONIA","lat":"37.2","long":"-88.05"},{"city":"FREEBURN","lat":"37.54","long":"-82.14"},{"city":"FRENCHBURG","lat":"37.95","long":"-83.62"},{"city":"FT MITCHELL","lat":"39.02","long":"-84.56"},{"city":"FULTON","lat":"36.51","long":"-88.88"},{"city":"GAMALIEL","lat":"36.63","long":"-85.79"},{"city":"GAPVILLE","lat":"37.63","long":"-82.95"},{"city":"GARFIELD","lat":"37.78","long":"-86.35"},{"city":"GARNER","lat":"37.35","long":"-82.92"},{"city":"GARRARD","lat":"37.12","long":"-83.74"},{"city":"GARRETT","lat":"37.48","long":"-82.83"},{"city":"GARRISON","lat":"38.55","long":"-83.19"},{"city":"GAYS CREEK","lat":"37.33","long":"-83.4"},{"city":"GEORGETOWN","lat":"38.2","long":"-84.55"},{"city":"GERMANTOWN","lat":"38.65","long":"-83.96"},{"city":"GHENT","lat":"38.73","long":"-85.06"},{"city":"GILBERTSVILLE","lat":"36.96","long":"-88.27"},{"city":"GIRDLER","lat":"36.93","long":"-83.84"},{"city":"GLASGOW","lat":"36.99","long":"-85.92"},{"city":"GLENCOE","lat":"38.71","long":"-84.82"},{"city":"GLENDALE","lat":"37.6","long":"-85.91"},{"city":"GLENS FORK","lat":"37.01","long":"-85.25"},{"city":"GLENVIEW","lat":"38.3","long":"-85.65"},{"city":"GOOSE ROCK","lat":"37.09","long":"-83.69"},{"city":"GORDON","lat":"37","long":"-83.02"},{"city":"GOSHEN","lat":"38.4","long":"-85.59"},{"city":"GRACEY","lat":"36.85","long":"-87.65"},{"city":"GRADYVILLE","lat":"37.08","long":"-85.41"},{"city":"GRAHAM","lat":"37.24","long":"-87.29"},{"city":"GRAHN","lat":"38.3","long":"-83.09"},{"city":"GRAND RIVERS","lat":"37","long":"-88.23"},{"city":"GRAVEL SWITCH","lat":"37.58","long":"-85.05"},{"city":"GRAY","lat":"36.94","long":"-84"},{"city":"GRAY HAWK","lat":"37.39","long":"-83.93"},{"city":"GRAYS KNOB","lat":"36.8","long":"-83.3"},{"city":"GRAYSON","lat":"38.33","long":"-82.93"},{"city":"GREEN ROAD","lat":"36.95","long":"-83.83"},{"city":"GREENSBURG","lat":"37.25","long":"-85.49"},{"city":"GREENUP","lat":"38.57","long":"-82.82"},{"city":"GREENVILLE","lat":"37.2","long":"-87.17"},{"city":"GRETHEL","lat":"37.49","long":"-82.64"},{"city":"GULSTON","lat":"36.75","long":"-83.33"},{"city":"GUNLOCK","lat":"37.54","long":"-82.92"},{"city":"GUSTON","lat":"37.88","long":"-86.21"},{"city":"GUTHRIE","lat":"36.65","long":"-87.17"},{"city":"HAGERHILL","lat":"37.78","long":"-82.79"},{"city":"HALLIE","lat":"37.1","long":"-83.02"},{"city":"HAMPTON","lat":"37.33","long":"-88.4"},{"city":"HANSON","lat":"37.41","long":"-87.47"},{"city":"HAPPY","lat":"37.2","long":"-83.09"},{"city":"HARDBURLY","lat":"37.24","long":"-83.2"},{"city":"HARDIN","lat":"36.76","long":"-88.3"},{"city":"HARDINSBURG","lat":"37.77","long":"-86.45"},{"city":"HARDY","lat":"37.61","long":"-82.24"},{"city":"HARDYVILLE","lat":"37.25","long":"-85.8"},{"city":"HARLAN","lat":"36.84","long":"-83.32"},{"city":"HARNED","lat":"37.75","long":"-86.41"},{"city":"HAROLD","lat":"37.53","long":"-82.63"},{"city":"HARRODS CREEK","lat":"38.28","long":"-85.62"},{"city":"HARRODSBURG","lat":"37.76","long":"-84.84"},{"city":"HARTFORD","lat":"37.45","long":"-86.89"},{"city":"HAWESVILLE","lat":"37.89","long":"-86.75"},{"city":"HAZARD","lat":"37.25","long":"-83.19"},{"city":"HAZEL","lat":"36.5","long":"-88.32"},{"city":"HAZEL GREEN","lat":"37.79","long":"-83.41"},{"city":"HEBRON","lat":"39.08","long":"-84.7"},{"city":"HEIDELBERG","lat":"37.55","long":"-83.77"},{"city":"HEIDRICK","lat":"36.88","long":"-83.87"},{"city":"HELLIER","lat":"37.27","long":"-82.49"},{"city":"HELTON","lat":"36.95","long":"-83.39"},{"city":"HENDERSON","lat":"37.83","long":"-87.58"},{"city":"HERNDON","lat":"36.71","long":"-87.6"},{"city":"HESTAND","lat":"36.65","long":"-85.61"},{"city":"HI HAT","lat":"37.39","long":"-82.72"},{"city":"HICKMAN","lat":"36.56","long":"-89.18"},{"city":"HICKORY","lat":"36.84","long":"-88.69"},{"city":"HILLSBORO","lat":"38.29","long":"-83.65"},{"city":"HILLVIEW","lat":"38.07","long":"-85.67"},{"city":"HIMA","lat":"37.12","long":"-83.77"},{"city":"HINDMAN","lat":"37.33","long":"-82.98"},{"city":"HINKLE","lat":"36.91","long":"-83.81"},{"city":"HISEVILLE","lat":"37.1","long":"-85.81"},{"city":"HITCHINS","lat":"38.23","long":"-82.91"},{"city":"HODGENVILLE","lat":"37.56","long":"-85.73"},{"city":"HOLLAND","lat":"36.7","long":"-86.06"},{"city":"HOLMES MILL","lat":"36.86","long":"-83"},{"city":"HOPE","lat":"38.01","long":"-83.77"},{"city":"HOPKINSVILLE","lat":"36.85","long":"-87.49"},{"city":"HORSE BRANCH","lat":"37.4","long":"-86.71"},{"city":"HORSE CAVE","lat":"37.17","long":"-85.91"},{"city":"HOSKINSTON","lat":"37.07","long":"-83.39"},{"city":"HUDDY","lat":"37.59","long":"-82.27"},{"city":"HUDSON","lat":"37.65","long":"-86.28"},{"city":"HUEYSVILLE","lat":"37.54","long":"-82.83"},{"city":"HULEN","lat":"36.74","long":"-83.53"},{"city":"HUSTONVILLE","lat":"37.47","long":"-84.81"},{"city":"HYDEN","lat":"37.16","long":"-83.37"},{"city":"INDEPENDENCE","lat":"38.95","long":"-84.54"},{"city":"INEZ","lat":"37.86","long":"-82.53"},{"city":"INGRAM","lat":"36.73","long":"-83.79"},{"city":"IRVINE","lat":"37.69","long":"-83.96"},{"city":"IRVINGTON","lat":"37.87","long":"-86.28"},{"city":"ISLAND","lat":"37.44","long":"-87.14"},{"city":"ISLAND CITY","lat":"37.36","long":"-83.76"},{"city":"ISOM","lat":"37.18","long":"-82.89"},{"city":"ISONVILLE","lat":"38.06","long":"-83.05"},{"city":"IVEL","lat":"37.59","long":"-82.66"},{"city":"JACKHORN","lat":"37.16","long":"-82.68"},{"city":"JACKSON","lat":"37.55","long":"-83.37"},{"city":"JAMESTOWN","lat":"36.99","long":"-85.07"},{"city":"JEFF","lat":"37.2","long":"-83.13"},{"city":"JEFFERSONVILLE","lat":"37.96","long":"-83.82"},{"city":"JENKINS","lat":"37.17","long":"-82.62"},{"city":"JEREMIAH","lat":"37.16","long":"-82.92"},{"city":"JETSON","lat":"37.23","long":"-86.51"},{"city":"JONANCY","lat":"37.31","long":"-82.58"},{"city":"JONESVILLE","lat":"38.65","long":"-84.75"},{"city":"JUNCTION CITY","lat":"37.58","long":"-84.78"},{"city":"KEATON","lat":"37.98","long":"-82.96"},{"city":"KEAVY","lat":"37","long":"-84.16"},{"city":"KEENE","lat":"37.93","long":"-84.63"},{"city":"KENTON","lat":"38.85","long":"-84.52"},{"city":"KENVIR","lat":"36.85","long":"-83.15"},{"city":"KETTLE ISLAND","lat":"36.79","long":"-83.6"},{"city":"KEVIL","lat":"37.08","long":"-88.88"},{"city":"KIMPER","lat":"37.49","long":"-82.34"},{"city":"KINGS MOUNTAIN","lat":"37.36","long":"-84.7"},{"city":"KIRKSEY","lat":"36.68","long":"-88.42"},{"city":"KITE","lat":"37.33","long":"-82.81"},{"city":"KNIFLEY","lat":"37.22","long":"-85.14"},{"city":"KNOB LICK","lat":"37.08","long":"-85.68"},{"city":"KRYPTON","lat":"37.31","long":"-83.33"},{"city":"KUTTAWA","lat":"37.06","long":"-88.1"},{"city":"LA CENTER","lat":"37.07","long":"-88.97"},{"city":"LA FAYETTE","lat":"36.66","long":"-87.65"},{"city":"LA GRANGE","lat":"38.4","long":"-85.37"},{"city":"LACKEY","lat":"37.46","long":"-82.8"},{"city":"LANCASTER","lat":"37.61","long":"-84.57"},{"city":"LANGLEY","lat":"37.53","long":"-82.79"},{"city":"LATONIA","lat":"38.98","long":"-84.48"},{"city":"LAWRENCEBURG","lat":"38.03","long":"-84.89"},{"city":"LEBANON","lat":"37.56","long":"-85.25"},{"city":"LEBANON JUNCTION","lat":"37.83","long":"-85.72"},{"city":"LEBURN","lat":"37.34","long":"-82.95"},{"city":"LEDBETTER","lat":"37.04","long":"-88.49"},{"city":"LEITCHFIELD","lat":"37.48","long":"-86.29"},{"city":"LEJUNIOR","lat":"36.9","long":"-83.07"},{"city":"LETCHER","lat":"37.14","long":"-82.95"},{"city":"LEWISBURG","lat":"36.98","long":"-86.95"},{"city":"LEWISPORT","lat":"37.93","long":"-86.9"},{"city":"LEXINGTON","lat":"38.04","long":"-84.45"},{"city":"LIBERTY","lat":"37.31","long":"-84.93"},{"city":"LICK CREEK","lat":"37.34","long":"-82.32"},{"city":"LILY","lat":"37.02","long":"-84.07"},{"city":"LINEFORK","lat":"37.02","long":"-82.95"},{"city":"LITTCARR","lat":"37.24","long":"-82.94"},{"city":"LIVERMORE","lat":"37.49","long":"-87.13"},{"city":"LIVINGSTON","lat":"37.29","long":"-84.21"},{"city":"LOCKPORT","lat":"38.43","long":"-84.98"},{"city":"LONDON","lat":"37.12","long":"-84.08"},{"city":"LONE","lat":"37.53","long":"-83.6"},{"city":"LOOKOUT","lat":"37.31","long":"-82.46"},{"city":"LORETTO","lat":"37.63","long":"-85.4"},{"city":"LOST CREEK","lat":"37.48","long":"-83.32"},{"city":"LOUISA","lat":"38.1","long":"-82.6"},{"city":"LOUISVILLE","lat":"38.22","long":"-85.74"},{"city":"LOVELACEVILLE","lat":"36.96","long":"-88.83"},{"city":"LOVELY","lat":"37.82","long":"-82.45"},{"city":"LOWES","lat":"36.88","long":"-88.77"},{"city":"LOWMANSVILLE","lat":"37.91","long":"-82.71"},{"city":"LOYALL","lat":"36.85","long":"-83.35"},{"city":"LUCAS","lat":"36.88","long":"-86.03"},{"city":"LYNCH","lat":"36.96","long":"-82.91"},{"city":"LYNNVILLE","lat":"36.56","long":"-88.56"},{"city":"MACEO","lat":"37.85","long":"-87"},{"city":"MACKVILLE","lat":"37.73","long":"-85.06"},{"city":"MADISONVILLE","lat":"37.33","long":"-87.5"},{"city":"MAGNOLIA","lat":"37.45","long":"-85.75"},{"city":"MAJESTIC","lat":"37.53","long":"-82.1"},{"city":"MALLIE","lat":"37.3","long":"-82.91"},{"city":"MALONE","lat":"37.87","long":"-83.25"},{"city":"MAMMOTH CAVE","lat":"37.2","long":"-86.1"},{"city":"MANCHESTER","lat":"37.15","long":"-83.76"},{"city":"MANITOU","lat":"37.41","long":"-87.57"},{"city":"MANNSVILLE","lat":"37.36","long":"-85.2"},{"city":"MAPLE MOUNT","lat":"37.69","long":"-87.32"},{"city":"MARION","lat":"37.33","long":"-88.07"},{"city":"MARROWBONE","lat":"36.81","long":"-85.5"},{"city":"MARSHES SIDING","lat":"36.74","long":"-84.48"},{"city":"MARTHA","lat":"38.01","long":"-82.95"},{"city":"MARTIN","lat":"37.57","long":"-82.75"},{"city":"MARY ALICE","lat":"36.78","long":"-83.33"},{"city":"MASON","lat":"38.57","long":"-84.58"},{"city":"MASONIC HOME","lat":"38.26","long":"-85.65"},{"city":"MAYFIELD","lat":"36.73","long":"-88.64"},{"city":"MAYKING","lat":"37.13","long":"-82.76"},{"city":"MAYSLICK","lat":"38.53","long":"-83.87"},{"city":"MAYSVILLE","lat":"38.62","long":"-83.78"},{"city":"MAZIE","lat":"38.01","long":"-82.95"},{"city":"MC ANDREWS","lat":"37.54","long":"-82.28"},{"city":"MC CARR","lat":"37.59","long":"-82.16"},{"city":"MC DANIELS","lat":"37.59","long":"-86.4"},{"city":"MC DOWELL","lat":"37.42","long":"-82.74"},{"city":"MC HENRY","lat":"37.37","long":"-86.92"},{"city":"MC KEE","lat":"37.43","long":"-83.98"},{"city":"MC KINNEY","lat":"37.47","long":"-84.75"},{"city":"MC QUADY","lat":"37.73","long":"-86.54"},{"city":"MC ROBERTS","lat":"37.21","long":"-82.66"},{"city":"MEALLY","lat":"37.79","long":"-82.73"},{"city":"MEANS","lat":"37.94","long":"-83.76"},{"city":"MELBER","lat":"36.91","long":"-88.75"},{"city":"MELBOURNE","lat":"39.03","long":"-84.37"},{"city":"MELVIN","lat":"37.35","long":"-82.69"},{"city":"MIDDLEBURG","lat":"37.35","long":"-84.81"},{"city":"MIDDLESBORO","lat":"36.61","long":"-83.72"},{"city":"MIDWAY","lat":"38.14","long":"-84.68"},{"city":"MILBURN","lat":"36.79","long":"-88.89"},{"city":"MILFORD","lat":"38.58","long":"-84.15"},{"city":"MILLERSBURG","lat":"38.3","long":"-84.14"},{"city":"MILLSTONE","lat":"37.16","long":"-82.75"},{"city":"MILLWOOD","lat":"37.45","long":"-86.5"},{"city":"MILTON","lat":"38.71","long":"-85.37"},{"city":"MINERVA","lat":"38.69","long":"-83.91"},{"city":"MINNIE","lat":"37.47","long":"-82.75"},{"city":"MIRACLE","lat":"36.76","long":"-83.58"},{"city":"MISTLETOE","lat":"37.31","long":"-83.59"},{"city":"MITCHELLSBURG","lat":"37.6","long":"-84.95"},{"city":"MIZE","lat":"37.86","long":"-83.37"},{"city":"MONTICELLO","lat":"36.84","long":"-84.84"},{"city":"MOOREFIELD","lat":"38.26","long":"-83.93"},{"city":"MOREHEAD","lat":"38.19","long":"-83.44"},{"city":"MORGANFIELD","lat":"37.68","long":"-87.9"},{"city":"MORGANTOWN","lat":"37.21","long":"-86.7"},{"city":"MORNING VIEW","lat":"38.83","long":"-84.51"},{"city":"MORTONS GAP","lat":"37.23","long":"-87.47"},{"city":"MOUNT EDEN","lat":"38.03","long":"-85.16"},{"city":"MOUNT HERMON","lat":"36.8","long":"-85.81"},{"city":"MOUNT OLIVET","lat":"38.53","long":"-84.03"},{"city":"MOUNT SHERMAN","lat":"37.43","long":"-85.62"},{"city":"MOUNT STERLING","lat":"38.06","long":"-83.94"},{"city":"MOUNT VERNON","lat":"37.36","long":"-84.34"},{"city":"MOUNT WASHINGTON","lat":"38.04","long":"-85.55"},{"city":"MOUSIE","lat":"37.41","long":"-82.87"},{"city":"MOUTHCARD","lat":"37.38","long":"-82.25"},{"city":"MOZELLE","lat":"37","long":"-83.39"},{"city":"MULDRAUGH","lat":"37.93","long":"-85.99"},{"city":"MUNFORDVILLE","lat":"37.28","long":"-85.89"},{"city":"MURRAY","lat":"36.61","long":"-88.31"},{"city":"MUSES MILLS","lat":"38.35","long":"-83.52"},{"city":"MYRA","lat":"37.28","long":"-82.6"},{"city":"NANCY","lat":"37.07","long":"-84.75"},{"city":"NAZARETH","lat":"37.83","long":"-85.46"},{"city":"NEBO","lat":"37.38","long":"-87.64"},{"city":"NEON","lat":"37.21","long":"-82.7"},{"city":"NERINX","lat":"37.66","long":"-85.42"},{"city":"NEVISDALE","lat":"36.65","long":"-84.11"},{"city":"NEW CASTLE","lat":"38.43","long":"-85.17"},{"city":"NEW CONCORD","lat":"36.59","long":"-88.06"},{"city":"NEW HAVEN","lat":"37.65","long":"-85.58"},{"city":"NEW HOPE","lat":"37.63","long":"-85.51"},{"city":"NEW LIBERTY","lat":"38.62","long":"-84.89"},{"city":"NEWPORT","lat":"39.08","long":"-84.48"},{"city":"NICHOLASVILLE","lat":"37.87","long":"-84.58"},{"city":"NORTH MIDDLETOWN","lat":"38.14","long":"-84.11"},{"city":"NORTONVILLE","lat":"37.18","long":"-87.45"},{"city":"OAK GROVE","lat":"36.66","long":"-87.42"},{"city":"OAKLAND","lat":"37.04","long":"-86.25"},{"city":"OIL SPRINGS","lat":"37.8","long":"-82.94"},{"city":"OLATON","lat":"37.53","long":"-86.7"},{"city":"OLIVE HILL","lat":"38.3","long":"-83.16"},{"city":"OLMSTEAD","lat":"36.75","long":"-87.01"},{"city":"OLYMPIA","lat":"38.09","long":"-83.69"},{"city":"ONEIDA","lat":"37.27","long":"-83.64"},{"city":"OPHIR","lat":"37.9","long":"-83.01"},{"city":"ORLANDO","lat":"37.37","long":"-84.26"},{"city":"OWENSBORO","lat":"37.75","long":"-87.11"},{"city":"OWENTON","lat":"38.53","long":"-84.83"},{"city":"OWINGSVILLE","lat":"38.13","long":"-83.75"},{"city":"PADUCAH","lat":"37.07","long":"-88.63"},{"city":"PAINT LICK","lat":"37.61","long":"-84.41"},{"city":"PAINTSVILLE","lat":"37.81","long":"-82.8"},{"city":"PARIS","lat":"38.2","long":"-84.26"},{"city":"PARK CITY","lat":"37.09","long":"-86.04"},{"city":"PARKERS LAKE","lat":"36.84","long":"-84.48"},{"city":"PARKSVILLE","lat":"37.6","long":"-84.9"},{"city":"PARTRIDGE","lat":"37","long":"-82.89"},{"city":"PATHFORK","lat":"36.75","long":"-83.46"},{"city":"PAYNEVILLE","lat":"37.98","long":"-86.31"},{"city":"PELLVILLE","lat":"37.75","long":"-86.81"},{"city":"PEMBROKE","lat":"36.77","long":"-87.35"},{"city":"PENDLETON","lat":"38.48","long":"-85.32"},{"city":"PERRY PARK","lat":"38.55","long":"-84.97"},{"city":"PERRYVILLE","lat":"37.64","long":"-84.95"},{"city":"PETERSBURG","lat":"39.03","long":"-84.83"},{"city":"PEWEE VALLEY","lat":"38.31","long":"-85.48"},{"city":"PHELPS","lat":"37.5","long":"-82.16"},{"city":"PHILPOT","lat":"37.7","long":"-86.93"},{"city":"PHYLLIS","lat":"37.44","long":"-82.33"},{"city":"PIKEVILLE","lat":"37.47","long":"-82.51"},{"city":"PILGRIM","lat":"37.79","long":"-82.42"},{"city":"PINE KNOT","lat":"36.66","long":"-84.43"},{"city":"PINE RIDGE","lat":"37.76","long":"-83.61"},{"city":"PINE TOP","lat":"37.27","long":"-82.88"},{"city":"PINEVILLE","lat":"36.76","long":"-83.7"},{"city":"PINSONFORK","lat":"37.54","long":"-82.25"},{"city":"PIPPA PASSES","lat":"37.33","long":"-82.87"},{"city":"PITTSBURG","lat":"37.16","long":"-84.1"},{"city":"PLEASUREVILLE","lat":"38.35","long":"-85.11"},{"city":"PLUMMERS LANDING","lat":"38.32","long":"-83.56"},{"city":"POOLE","lat":"37.64","long":"-87.64"},{"city":"PORT ROYAL","lat":"38.55","long":"-85.08"},{"city":"POWDERLY","lat":"37.23","long":"-87.16"},{"city":"PREMIUM","lat":"37.12","long":"-82.91"},{"city":"PRESTON","lat":"38.08","long":"-83.75"},{"city":"PRESTONSBURG","lat":"37.67","long":"-82.76"},{"city":"PRIMROSE","lat":"37.6","long":"-83.6"},{"city":"PRINCETON","lat":"37.1","long":"-87.88"},{"city":"PRINTER","lat":"37.53","long":"-82.74"},{"city":"PROSPECT","lat":"38.34","long":"-85.6"},{"city":"PROVIDENCE","lat":"37.39","long":"-87.75"},{"city":"PUTNEY","lat":"36.9","long":"-83.22"},{"city":"QUINCY","lat":"38.63","long":"-83.09"},{"city":"RACCOON","lat":"37.49","long":"-82.44"},{"city":"RADCLIFF","lat":"37.82","long":"-85.94"},{"city":"RANSOM","lat":"37.54","long":"-82.2"},{"city":"RAVEN","lat":"37.4","long":"-82.8"},{"city":"RAVENNA","lat":"37.68","long":"-83.94"},{"city":"RAYWICK","lat":"37.55","long":"-85.43"},{"city":"REDFOX","lat":"37.21","long":"-82.94"},{"city":"REED","lat":"37.87","long":"-87.37"},{"city":"REGINA","lat":"37.35","long":"-82.37"},{"city":"RENFRO VALLEY","lat":"37.38","long":"-84.33"},{"city":"REVELO","lat":"36.67","long":"-84.47"},{"city":"REYNOLDS STATION","lat":"37.69","long":"-86.77"},{"city":"RHODELIA","lat":"38","long":"-86.41"},{"city":"RICETOWN","lat":"37.39","long":"-83.62"},{"city":"RICHMOND","lat":"37.74","long":"-84.29"},{"city":"RINEYVILLE","lat":"37.75","long":"-85.96"},{"city":"RIVER","lat":"37.86","long":"-82.72"},{"city":"ROARK","lat":"37.02","long":"-83.51"},{"city":"ROBARDS","lat":"37.67","long":"-87.52"},{"city":"ROBINSON CREEK","lat":"37.32","long":"-82.57"},{"city":"ROCHESTER","lat":"37.2","long":"-86.89"},{"city":"ROCKFIELD","lat":"36.9","long":"-86.55"},{"city":"ROCKHOLDS","lat":"36.82","long":"-84.11"},{"city":"ROCKHOUSE","lat":"37.32","long":"-82.45"},{"city":"ROCKPORT","lat":"37.33","long":"-86.99"},{"city":"ROCKY HILL","lat":"37.06","long":"-86.1"},{"city":"ROGERS","lat":"37.74","long":"-83.63"},{"city":"ROSINE","lat":"37.45","long":"-86.75"},{"city":"ROUNDHILL","lat":"37.23","long":"-86.45"},{"city":"ROUSSEAU","lat":"37.59","long":"-83.23"},{"city":"ROWDY","lat":"37.41","long":"-83.2"},{"city":"ROXANA","lat":"37.1","long":"-82.94"},{"city":"ROYALTON","lat":"37.67","long":"-83.02"},{"city":"RUMSEY","lat":"37.49","long":"-87.28"},{"city":"RUSH","lat":"38.29","long":"-82.73"},{"city":"RUSSELL","lat":"38.51","long":"-82.69"},{"city":"RUSSELL SPRINGS","lat":"37.05","long":"-85.07"},{"city":"RUSSELLVILLE","lat":"36.83","long":"-86.89"},{"city":"SACRAMENTO","lat":"37.41","long":"-87.26"},{"city":"SADIEVILLE","lat":"38.39","long":"-84.53"},{"city":"SAINT CATHARINE","lat":"37.7","long":"-85.27"},{"city":"SAINT CHARLES","lat":"37.18","long":"-87.55"},{"city":"SAINT FRANCIS","lat":"37.62","long":"-85.46"},{"city":"SAINT HELENS","lat":"37.57","long":"-83.65"},{"city":"SAINT MARY","lat":"37.58","long":"-85.33"},{"city":"SALEM","lat":"37.26","long":"-88.23"},{"city":"SALT LICK","lat":"38.11","long":"-83.61"},{"city":"SALVISA","lat":"37.91","long":"-84.86"},{"city":"SALYERSVILLE","lat":"37.74","long":"-83.06"},{"city":"SANDERS","lat":"38.65","long":"-84.94"},{"city":"SANDGAP","lat":"37.48","long":"-84.09"},{"city":"SANDY HOOK","lat":"38.09","long":"-83.12"},{"city":"SASSAFRAS","lat":"37.22","long":"-83.05"},{"city":"SAUL","lat":"37.27","long":"-83.49"},{"city":"SCALF","lat":"36.91","long":"-83.7"},{"city":"SCIENCE HILL","lat":"37.17","long":"-84.63"},{"city":"SCOTTSVILLE","lat":"36.74","long":"-86.19"},{"city":"SCUDDY","lat":"37.21","long":"-83.09"},{"city":"SEBREE","lat":"37.6","long":"-87.52"},{"city":"SECO","lat":"37.17","long":"-82.73"},{"city":"SEDALIA","lat":"36.56","long":"-88.58"},{"city":"SEXTONS CREEK","lat":"37.31","long":"-83.78"},{"city":"SHARON GROVE","lat":"36.94","long":"-87.09"},{"city":"SHARPSBURG","lat":"38.2","long":"-83.92"},{"city":"SHELBIANA","lat":"37.42","long":"-82.49"},{"city":"SHELBY GAP","lat":"37.21","long":"-82.55"},{"city":"SHELBYVILLE","lat":"38.21","long":"-85.23"},{"city":"SHEPHERDSVILLE","lat":"37.98","long":"-85.71"},{"city":"SIDNEY","lat":"37.62","long":"-82.35"},{"city":"SILER","lat":"36.69","long":"-83.96"},{"city":"SILVER GROVE","lat":"39.03","long":"-84.39"},{"city":"SIMPSONVILLE","lat":"38.21","long":"-85.35"},{"city":"SITKA","lat":"37.88","long":"-82.84"},{"city":"SIZEROCK","lat":"37.22","long":"-83.5"},{"city":"SLADE","lat":"37.79","long":"-83.7"},{"city":"SLAUGHTERS","lat":"37.49","long":"-87.5"},{"city":"SLEMP","lat":"37.07","long":"-83.11"},{"city":"SMILAX","lat":"37.13","long":"-83.28"},{"city":"SMITH MILLS","lat":"37.8","long":"-87.67"},{"city":"SMITHFIELD","lat":"38.38","long":"-85.25"},{"city":"SMITHLAND","lat":"37.13","long":"-88.4"},{"city":"SMITHS GROVE","lat":"37.05","long":"-86.2"},{"city":"SOLDIER","lat":"38.27","long":"-83.28"},{"city":"SOMERSET","lat":"37.08","long":"-84.6"},{"city":"SONORA","lat":"37.52","long":"-85.89"},{"city":"SOUTH CARROLLTON","lat":"37.33","long":"-87.14"},{"city":"SOUTH PORTSMOUTH","lat":"38.7","long":"-83.01"},{"city":"SOUTH SHORE","lat":"38.72","long":"-82.96"},{"city":"SOUTH UNION","lat":"36.87","long":"-86.65"},{"city":"SOUTH WILLIAMSON","lat":"37.66","long":"-82.29"},{"city":"SPARTA","lat":"38.67","long":"-84.9"},{"city":"SPOTTSVILLE","lat":"37.82","long":"-87.42"},{"city":"SPRINGFIELD","lat":"37.68","long":"-85.22"},{"city":"STAFFORDSVILLE","lat":"37.83","long":"-82.84"},{"city":"STAMBAUGH","lat":"37.88","long":"-82.79"},{"city":"STAMPING GROUND","lat":"38.27","long":"-84.68"},{"city":"STANFORD","lat":"37.53","long":"-84.66"},{"city":"STANLEY","lat":"37.82","long":"-87.24"},{"city":"STANTON","lat":"37.84","long":"-83.85"},{"city":"STANVILLE","lat":"37.58","long":"-82.67"},{"city":"STEARNS","lat":"36.69","long":"-84.47"},{"city":"STEELE","lat":"37.97","long":"-82.18"},{"city":"STEPHENSPORT","lat":"37.91","long":"-86.53"},{"city":"STINNETT","lat":"37.09","long":"-83.39"},{"city":"STONE","lat":"37.56","long":"-82.27"},{"city":"STONEY FORK","lat":"36.88","long":"-83.52"},{"city":"STOPOVER","lat":"37.52","long":"-82.03"},{"city":"STRUNK","lat":"36.62","long":"-84.43"},{"city":"STURGIS","lat":"37.54","long":"-87.98"},{"city":"SULLIVAN","lat":"37.49","long":"-87.94"},{"city":"SULPHUR","lat":"38.48","long":"-85.26"},{"city":"SUMMER SHADE","lat":"36.88","long":"-85.7"},{"city":"SUMMERSVILLE","lat":"37.31","long":"-85.61"},{"city":"SWEEDEN","lat":"37.25","long":"-86.28"},{"city":"SYMSONIA","lat":"36.9","long":"-88.51"},{"city":"TATEVILLE","lat":"36.96","long":"-84.58"},{"city":"TAYLORSVILLE","lat":"38.03","long":"-85.34"},{"city":"TEABERRY","lat":"37.42","long":"-82.64"},{"city":"THELMA","lat":"37.81","long":"-82.76"},{"city":"THORNTON","lat":"37.15","long":"-82.73"},{"city":"THOUSANDSTICKS","lat":"37.18","long":"-83.42"},{"city":"TILINE","lat":"37.16","long":"-88.25"},{"city":"TOLLESBORO","lat":"38.57","long":"-83.57"},{"city":"TOLU","lat":"37.43","long":"-88.24"},{"city":"TOMAHAWK","lat":"37.87","long":"-82.59"},{"city":"TOMPKINSVILLE","lat":"36.7","long":"-85.69"},{"city":"TOPMOST","lat":"37.36","long":"-82.78"},{"city":"TOTZ","lat":"36.94","long":"-83.11"},{"city":"TRAM","lat":"37.58","long":"-82.63"},{"city":"TRENTON","lat":"36.72","long":"-87.26"},{"city":"TROSPER","lat":"36.78","long":"-83.81"},{"city":"TURNERS STATION","lat":"38.55","long":"-85.12"},{"city":"TUTOR KEY","lat":"37.84","long":"-82.76"},{"city":"TYNER","lat":"37.34","long":"-83.9"},{"city":"ULYSSES","lat":"38","long":"-82.71"},{"city":"UNION","lat":"38.95","long":"-84.66"},{"city":"UNION STAR","lat":"37.93","long":"-86.45"},{"city":"UNIONTOWN","lat":"37.77","long":"-87.93"},{"city":"UPTON","lat":"37.46","long":"-85.89"},{"city":"UTICA","lat":"37.61","long":"-87.07"},{"city":"VAN LEAR","lat":"37.76","long":"-82.75"},{"city":"VANCEBURG","lat":"38.59","long":"-83.32"},{"city":"VANCLEVE","lat":"37.62","long":"-83.41"},{"city":"VARNEY","lat":"37.63","long":"-82.42"},{"city":"VERONA","lat":"38.83","long":"-84.69"},{"city":"VERSAILLES","lat":"38.05","long":"-84.72"},{"city":"VEST","lat":"37.39","long":"-83"},{"city":"VICCO","lat":"37.21","long":"-83.06"},{"city":"VINCENT","lat":"37.46","long":"-83.77"},{"city":"VINE GROVE","lat":"37.81","long":"-85.97"},{"city":"VIPER","lat":"37.18","long":"-83.14"},{"city":"VIRGIE","lat":"37.33","long":"-82.57"},{"city":"WACO","lat":"37.73","long":"-84.15"},{"city":"WADDY","lat":"38.13","long":"-85.06"},{"city":"WALKER","lat":"36.88","long":"-83.71"},{"city":"WALLINGFORD","lat":"38.4","long":"-83.61"},{"city":"WALLINS CREEK","lat":"36.82","long":"-83.41"},{"city":"WALTON","lat":"38.86","long":"-84.61"},{"city":"WANETA","lat":"37.47","long":"-84.03"},{"city":"WARBRANCH","lat":"36.97","long":"-83.44"},{"city":"WARFIELD","lat":"37.83","long":"-82.42"},{"city":"WARSAW","lat":"38.78","long":"-84.89"},{"city":"WASHINGTON","lat":"38.61","long":"-83.8"},{"city":"WATER VALLEY","lat":"36.56","long":"-88.81"},{"city":"WAVERLY","lat":"37.7","long":"-87.81"},{"city":"WAYLAND","lat":"37.44","long":"-82.8"},{"city":"WAYNESBURG","lat":"37.33","long":"-84.68"},{"city":"WEBBVILLE","lat":"38.15","long":"-82.79"},{"city":"WEBSTER","lat":"37.88","long":"-86.33"},{"city":"WEEKSBURY","lat":"37.32","long":"-82.71"},{"city":"WELCHS CREEK","lat":"37.31","long":"-86.52"},{"city":"WELLINGTON","lat":"37.91","long":"-83.5"},{"city":"WENDOVER","lat":"37.12","long":"-83.36"},{"city":"WEST LIBERTY","lat":"37.91","long":"-83.26"},{"city":"WEST LOUISVILLE","lat":"37.73","long":"-87.23"},{"city":"WEST PADUCAH","lat":"37.11","long":"-88.77"},{"city":"WEST POINT","lat":"37.98","long":"-85.95"},{"city":"WEST SOMERSET","lat":"37.09","long":"-84.64"},{"city":"WEST VAN LEAR","lat":"37.78","long":"-82.77"},{"city":"WESTPORT","lat":"38.48","long":"-85.46"},{"city":"WESTVIEW","lat":"37.68","long":"-86.42"},{"city":"WHEATCROFT","lat":"37.48","long":"-87.86"},{"city":"WHEELWRIGHT","lat":"37.33","long":"-82.72"},{"city":"WHICK","lat":"37.42","long":"-83.37"},{"city":"WHITE MILLS","lat":"37.55","long":"-86.03"},{"city":"WHITE PLAINS","lat":"37.18","long":"-87.38"},{"city":"WHITESBURG","lat":"37.11","long":"-82.82"},{"city":"WHITESVILLE","lat":"37.68","long":"-86.86"},{"city":"WHITLEY CITY","lat":"36.72","long":"-84.47"},{"city":"WICKLIFFE","lat":"36.96","long":"-89.08"},{"city":"WILDIE","lat":"37.42","long":"-84.3"},{"city":"WILLARD","lat":"38.24","long":"-82.85"},{"city":"WILLIAMSBURG","lat":"36.73","long":"-84.16"},{"city":"WILLIAMSPORT","lat":"37.82","long":"-82.72"},{"city":"WILLIAMSTOWN","lat":"38.63","long":"-84.56"},{"city":"WILLISBURG","lat":"37.81","long":"-85.12"},{"city":"WILMORE","lat":"37.86","long":"-84.65"},{"city":"WINCHESTER","lat":"37.99","long":"-84.18"},{"city":"WINDSOR","lat":"37.13","long":"-84.91"},{"city":"WINGO","lat":"36.64","long":"-88.73"},{"city":"WINSTON","lat":"37.7","long":"-84.08"},{"city":"WITTENSVILLE","lat":"37.86","long":"-82.79"},{"city":"WOODBINE","lat":"36.9","long":"-84.08"},{"city":"WOODBURN","lat":"36.84","long":"-86.52"},{"city":"WOODBURY","lat":"37.18","long":"-86.63"},{"city":"WOOLLUM","lat":"37","long":"-83.8"},{"city":"WOOTON","lat":"37.17","long":"-83.3"},{"city":"WORTHINGTON","lat":"38.55","long":"-82.73"},{"city":"WORTHVILLE","lat":"38.6","long":"-85.06"},{"city":"WRIGLEY","lat":"38.01","long":"-83.27"},{"city":"YEADDISS","lat":"37.07","long":"-83.21"},{"city":"YERKES","lat":"37.26","long":"-83.32"},{"city":"YOSEMITE","lat":"37.35","long":"-84.83"},{"city":"ZOE","lat":"37.68","long":"-83.68"}]