[{"city":"ACHILLE","lat":"33.83","long":"-96.38"},{"city":"ADA","lat":"34.77","long":"-96.66"},{"city":"ADAIR","lat":"36.43","long":"-95.26"},{"city":"ADAMS","lat":"36.75","long":"-101.08"},{"city":"ADDINGTON","lat":"34.24","long":"-97.96"},{"city":"AFTON","lat":"36.69","long":"-94.96"},{"city":"AGRA","lat":"35.89","long":"-96.87"},{"city":"ALBANY","lat":"33.88","long":"-96.17"},{"city":"ALBERT","lat":"35.23","long":"-98.4"},{"city":"ALBION","lat":"34.66","long":"-95.09"},{"city":"ALDERSON","lat":"34.9","long":"-95.69"},{"city":"ALEX","lat":"34.92","long":"-97.77"},{"city":"ALINE","lat":"36.5","long":"-98.44"},{"city":"ALLEN","lat":"34.87","long":"-96.41"},{"city":"ALTUS","lat":"34.64","long":"-99.31"},{"city":"ALTUS AFB","lat":"34.65","long":"-99.28"},{"city":"ALVA","lat":"36.8","long":"-98.66"},{"city":"AMBER","lat":"35.16","long":"-97.88"},{"city":"AMES","lat":"36.24","long":"-98.18"},{"city":"AMORITA","lat":"36.92","long":"-98.29"},{"city":"ANADARKO","lat":"35.06","long":"-98.24"},{"city":"ANTLERS","lat":"34.23","long":"-95.61"},{"city":"APACHE","lat":"34.89","long":"-98.35"},{"city":"ARAPAHO","lat":"35.57","long":"-98.95"},{"city":"ARCADIA","lat":"35.66","long":"-97.32"},{"city":"ARDMORE","lat":"34.19","long":"-97.11"},{"city":"ARKOMA","lat":"35.33","long":"-94.45"},{"city":"ARNETT","lat":"36.13","long":"-99.77"},{"city":"ASHER","lat":"34.98","long":"-96.92"},{"city":"ATOKA","lat":"34.38","long":"-96.13"},{"city":"ATWOOD","lat":"34.95","long":"-96.33"},{"city":"AVANT","lat":"36.48","long":"-96.06"},{"city":"BALKO","lat":"36.63","long":"-100.68"},{"city":"BARNSDALL","lat":"36.56","long":"-96.16"},{"city":"BARTLESVILLE","lat":"36.73","long":"-95.94"},{"city":"BATTIEST","lat":"34.4","long":"-94.93"},{"city":"BEAVER","lat":"36.81","long":"-100.52"},{"city":"BEGGS","lat":"35.78","long":"-96.02"},{"city":"BENNINGTON","lat":"34","long":"-96.03"},{"city":"BESSIE","lat":"35.38","long":"-98.98"},{"city":"BETHANY","lat":"35.5","long":"-97.64"},{"city":"BETHEL","lat":"34.35","long":"-94.85"},{"city":"BIG CABIN","lat":"36.53","long":"-95.22"},{"city":"BILLINGS","lat":"36.53","long":"-97.44"},{"city":"BINGER","lat":"35.3","long":"-98.34"},{"city":"BISON","lat":"36.2","long":"-97.88"},{"city":"BIXBY","lat":"35.94","long":"-95.87"},{"city":"BLACKWELL","lat":"36.8","long":"-97.29"},{"city":"BLAIR","lat":"34.77","long":"-99.33"},{"city":"BLANCHARD","lat":"35.14","long":"-97.65"},{"city":"BLANCO","lat":"34.75","long":"-95.77"},{"city":"BLOCKER","lat":"35.07","long":"-95.57"},{"city":"BLUEJACKET","lat":"36.8","long":"-95.07"},{"city":"BOISE CITY","lat":"36.73","long":"-102.51"},{"city":"BOKCHITO","lat":"34.01","long":"-96.14"},{"city":"BOKOSHE","lat":"35.19","long":"-94.79"},{"city":"BOLEY","lat":"35.49","long":"-96.47"},{"city":"BOSWELL","lat":"34.02","long":"-95.86"},{"city":"BOWLEGS","lat":"35.14","long":"-96.66"},{"city":"BOYNTON","lat":"35.64","long":"-95.65"},{"city":"BRADLEY","lat":"34.87","long":"-97.7"},{"city":"BRAGGS","lat":"35.66","long":"-95.19"},{"city":"BRAMAN","lat":"36.92","long":"-97.33"},{"city":"BRISTOW","lat":"35.83","long":"-96.39"},{"city":"BROKEN ARROW","lat":"36.03","long":"-95.78"},{"city":"BROKEN BOW","lat":"34.02","long":"-94.73"},{"city":"BROMIDE","lat":"34.41","long":"-96.49"},{"city":"BUFFALO","lat":"36.83","long":"-99.62"},{"city":"BUNCH","lat":"35.68","long":"-94.77"},{"city":"BURBANK","lat":"36.69","long":"-96.72"},{"city":"BURLINGTON","lat":"36.9","long":"-98.42"},{"city":"BURNEYVILLE","lat":"33.9","long":"-97.28"},{"city":"BURNS FLAT","lat":"35.35","long":"-99.17"},{"city":"BUTLER","lat":"35.63","long":"-99.18"},{"city":"BYARS","lat":"34.87","long":"-97.05"},{"city":"CACHE","lat":"34.62","long":"-98.61"},{"city":"CADDO","lat":"34.13","long":"-96.26"},{"city":"CALERA","lat":"33.93","long":"-96.43"},{"city":"CALUMET","lat":"35.6","long":"-98.12"},{"city":"CALVIN","lat":"34.96","long":"-96.25"},{"city":"CAMARGO","lat":"36.01","long":"-99.28"},{"city":"CAMERON","lat":"35.13","long":"-94.53"},{"city":"CANADIAN","lat":"35.17","long":"-95.64"},{"city":"CANEY","lat":"34.23","long":"-96.21"},{"city":"CANTON","lat":"36.05","long":"-98.58"},{"city":"CANUTE","lat":"35.42","long":"-99.27"},{"city":"CARDIN","lat":"36.97","long":"-94.85"},{"city":"CARMEN","lat":"36.57","long":"-98.45"},{"city":"CARNEGIE","lat":"35.1","long":"-98.59"},{"city":"CARNEY","lat":"35.8","long":"-97.01"},{"city":"CARRIER","lat":"36.47","long":"-98.01"},{"city":"CARTER","lat":"35.21","long":"-99.5"},{"city":"CARTWRIGHT","lat":"33.85","long":"-96.57"},{"city":"CASHION","lat":"35.8","long":"-97.67"},{"city":"CASTLE","lat":"35.47","long":"-96.38"},{"city":"CATOOSA","lat":"36.18","long":"-95.76"},{"city":"CEMENT","lat":"34.93","long":"-98.13"},{"city":"CENTRAHOMA","lat":"34.6","long":"-96.34"},{"city":"CHANDLER","lat":"35.7","long":"-96.87"},{"city":"CHATTANOOGA","lat":"34.42","long":"-98.65"},{"city":"CHECOTAH","lat":"35.47","long":"-95.52"},{"city":"CHELSEA","lat":"36.53","long":"-95.43"},{"city":"CHEROKEE","lat":"36.75","long":"-98.35"},{"city":"CHESTER","lat":"36.22","long":"-98.92"},{"city":"CHEYENNE","lat":"35.61","long":"-99.67"},{"city":"CHICKASHA","lat":"35.04","long":"-97.95"},{"city":"CHOCTAW","lat":"35.48","long":"-97.26"},{"city":"CHOUTEAU","lat":"36.18","long":"-95.33"},{"city":"CLAREMORE","lat":"36.31","long":"-95.61"},{"city":"CLARITA","lat":"34.48","long":"-96.43"},{"city":"CLAYTON","lat":"34.58","long":"-95.35"},{"city":"CLEO SPRINGS","lat":"36.4","long":"-98.43"},{"city":"CLEVELAND","lat":"36.29","long":"-96.46"},{"city":"CLINTON","lat":"35.5","long":"-98.97"},{"city":"COALGATE","lat":"34.53","long":"-96.21"},{"city":"COLBERT","lat":"33.85","long":"-96.5"},{"city":"COLCORD","lat":"36.26","long":"-94.69"},{"city":"COLEMAN","lat":"34.27","long":"-96.42"},{"city":"COLLINSVILLE","lat":"36.37","long":"-95.85"},{"city":"COLONY","lat":"35.34","long":"-98.67"},{"city":"COMANCHE","lat":"34.36","long":"-97.96"},{"city":"COMMERCE","lat":"36.93","long":"-94.86"},{"city":"CONCHO","lat":"35.62","long":"-98"},{"city":"CONNERVILLE","lat":"34.44","long":"-96.65"},{"city":"COOKSON","lat":"35.7","long":"-94.97"},{"city":"COPAN","lat":"36.89","long":"-95.92"},{"city":"CORDELL","lat":"35.3","long":"-98.98"},{"city":"CORN","lat":"35.37","long":"-98.78"},{"city":"COUNCIL HILL","lat":"35.55","long":"-95.65"},{"city":"COUNTYLINE","lat":"34.45","long":"-97.57"},{"city":"COVINGTON","lat":"36.3","long":"-97.58"},{"city":"COWETA","lat":"35.96","long":"-95.66"},{"city":"COYLE","lat":"35.95","long":"-97.23"},{"city":"CRAWFORD","lat":"35.83","long":"-99.8"},{"city":"CRESCENT","lat":"35.94","long":"-97.58"},{"city":"CROMWELL","lat":"35.34","long":"-96.45"},{"city":"CROWDER","lat":"35.12","long":"-95.66"},{"city":"CUSHING","lat":"35.97","long":"-96.76"},{"city":"CUSTER CITY","lat":"35.66","long":"-98.88"},{"city":"CYRIL","lat":"34.89","long":"-98.2"},{"city":"DACOMA","lat":"36.66","long":"-98.56"},{"city":"DAISY","lat":"34.53","long":"-95.73"},{"city":"DAVENPORT","lat":"35.7","long":"-96.76"},{"city":"DAVIDSON","lat":"34.24","long":"-99.07"},{"city":"DAVIS","lat":"34.48","long":"-97.13"},{"city":"DEER CREEK","lat":"36.8","long":"-97.51"},{"city":"DELAWARE","lat":"36.77","long":"-95.64"},{"city":"DEPEW","lat":"35.8","long":"-96.5"},{"city":"DEVOL","lat":"34.19","long":"-98.58"},{"city":"DEWAR","lat":"35.45","long":"-95.94"},{"city":"DEWEY","lat":"36.78","long":"-95.93"},{"city":"DIBBLE","lat":"35.03","long":"-97.62"},{"city":"DILL CITY","lat":"35.28","long":"-99.13"},{"city":"DISNEY","lat":"36.47","long":"-95.02"},{"city":"DOUGHERTY","lat":"34.39","long":"-97.05"},{"city":"DOUGLAS","lat":"36.26","long":"-97.66"},{"city":"DOVER","lat":"35.98","long":"-97.91"},{"city":"DRUMMOND","lat":"36.3","long":"-98.03"},{"city":"DRUMRIGHT","lat":"35.99","long":"-96.59"},{"city":"DUKE","lat":"34.67","long":"-99.58"},{"city":"DUNCAN","lat":"34.52","long":"-97.96"},{"city":"DURANT","lat":"33.98","long":"-96.39"},{"city":"DURHAM","lat":"35.83","long":"-99.92"},{"city":"DUSTIN","lat":"35.27","long":"-96.03"},{"city":"EAGLETOWN","lat":"34.03","long":"-94.57"},{"city":"EAKLY","lat":"35.3","long":"-98.55"},{"city":"EARLSBORO","lat":"35.32","long":"-96.79"},{"city":"EDMOND","lat":"35.67","long":"-97.41"},{"city":"EL RENO","lat":"35.54","long":"-97.96"},{"city":"ELDORADO","lat":"34.47","long":"-99.65"},{"city":"ELGIN","lat":"34.78","long":"-98.29"},{"city":"ELK CITY","lat":"35.4","long":"-99.41"},{"city":"ELMER","lat":"34.48","long":"-99.35"},{"city":"ELMORE CITY","lat":"34.62","long":"-97.39"},{"city":"ENID","lat":"36.4","long":"-97.86"},{"city":"ERICK","lat":"35.21","long":"-99.86"},{"city":"EUCHA","lat":"36.37","long":"-94.91"},{"city":"EUFAULA","lat":"35.29","long":"-95.58"},{"city":"FAIRFAX","lat":"36.57","long":"-96.7"},{"city":"FAIRLAND","lat":"36.75","long":"-94.84"},{"city":"FAIRMONT","lat":"36.35","long":"-97.7"},{"city":"FAIRVIEW","lat":"36.26","long":"-98.47"},{"city":"FANSHAWE","lat":"34.98","long":"-94.86"},{"city":"FARGO","lat":"36.37","long":"-99.62"},{"city":"FAXON","lat":"34.46","long":"-98.57"},{"city":"FAY","lat":"35.82","long":"-98.65"},{"city":"FELT","lat":"36.57","long":"-102.78"},{"city":"FINLEY","lat":"34.33","long":"-95.5"},{"city":"FITTSTOWN","lat":"34.62","long":"-96.63"},{"city":"FITZHUGH","lat":"34.66","long":"-96.77"},{"city":"FLETCHER","lat":"34.82","long":"-98.24"},{"city":"FORGAN","lat":"36.9","long":"-100.53"},{"city":"FORT COBB","lat":"35.1","long":"-98.44"},{"city":"FORT GIBSON","lat":"35.78","long":"-95.24"},{"city":"FORT SILL","lat":"34.65","long":"-98.4"},{"city":"FORT SUPPLY","lat":"36.57","long":"-99.57"},{"city":"FORT TOWSON","lat":"34.02","long":"-95.29"},{"city":"FOSS","lat":"35.45","long":"-99.17"},{"city":"FOSTER","lat":"34.62","long":"-97.48"},{"city":"FOX","lat":"34.35","long":"-97.48"},{"city":"FOYIL","lat":"36.43","long":"-95.52"},{"city":"FRANCIS","lat":"34.87","long":"-96.59"},{"city":"FREDERICK","lat":"34.38","long":"-99.01"},{"city":"FREEDOM","lat":"36.76","long":"-99.11"},{"city":"GAGE","lat":"36.31","long":"-99.75"},{"city":"GANS","lat":"35.38","long":"-94.69"},{"city":"GARBER","lat":"36.43","long":"-97.58"},{"city":"GARVIN","lat":"33.95","long":"-94.94"},{"city":"GATE","lat":"36.85","long":"-100.05"},{"city":"GEARY","lat":"35.62","long":"-98.31"},{"city":"GENE AUTRY","lat":"34.28","long":"-97.03"},{"city":"GERONIMO","lat":"34.48","long":"-98.38"},{"city":"GLENCOE","lat":"36.22","long":"-96.92"},{"city":"GLENPOOL","lat":"35.95","long":"-96"},{"city":"GOLDEN","lat":"34.04","long":"-94.9"},{"city":"GOLTRY","lat":"36.53","long":"-98.15"},{"city":"GOODWELL","lat":"36.59","long":"-101.63"},{"city":"GORE","lat":"35.54","long":"-95.11"},{"city":"GOTEBO","lat":"35.07","long":"-98.87"},{"city":"GOULD","lat":"34.66","long":"-99.77"},{"city":"GOWEN","lat":"34.87","long":"-95.47"},{"city":"GRACEMONT","lat":"35.18","long":"-98.25"},{"city":"GRAHAM","lat":"34.33","long":"-97.43"},{"city":"GRANDFIELD","lat":"34.23","long":"-98.68"},{"city":"GRANITE","lat":"34.96","long":"-99.37"},{"city":"GRANT","lat":"33.93","long":"-95.52"},{"city":"GREENFIELD","lat":"35.72","long":"-98.37"},{"city":"GROVE","lat":"36.59","long":"-94.78"},{"city":"GUTHRIE","lat":"35.84","long":"-97.42"},{"city":"GUYMON","lat":"36.68","long":"-101.48"},{"city":"HAILEYVILLE","lat":"34.85","long":"-95.57"},{"city":"HALLETT","lat":"36.23","long":"-96.56"},{"city":"HAMMON","lat":"35.63","long":"-99.38"},{"city":"HANNA","lat":"35.2","long":"-95.88"},{"city":"HARDESTY","lat":"36.61","long":"-101.19"},{"city":"HARRAH","lat":"35.48","long":"-97.18"},{"city":"HARTSHORNE","lat":"34.83","long":"-95.55"},{"city":"HASKELL","lat":"35.82","long":"-95.67"},{"city":"HASTINGS","lat":"34.22","long":"-98.1"},{"city":"HAWORTH","lat":"33.84","long":"-94.65"},{"city":"HEADRICK","lat":"34.62","long":"-99.13"},{"city":"HEALDTON","lat":"34.23","long":"-97.48"},{"city":"HEAVENER","lat":"34.89","long":"-94.6"},{"city":"HELENA","lat":"36.54","long":"-98.27"},{"city":"HENDRIX","lat":"33.77","long":"-96.4"},{"city":"HENNEPIN","lat":"34.5","long":"-97.35"},{"city":"HENNESSEY","lat":"36.1","long":"-97.89"},{"city":"HENRYETTA","lat":"35.44","long":"-95.98"},{"city":"HILLSDALE","lat":"36.56","long":"-97.99"},{"city":"HINTON","lat":"35.49","long":"-98.35"},{"city":"HITCHCOCK","lat":"35.96","long":"-98.34"},{"city":"HITCHITA","lat":"35.51","long":"-95.75"},{"city":"HOBART","lat":"35.02","long":"-99.09"},{"city":"HODGEN","lat":"34.83","long":"-94.62"},{"city":"HOLDENVILLE","lat":"35.08","long":"-96.39"},{"city":"HOLLIS","lat":"34.68","long":"-99.91"},{"city":"HOLLISTER","lat":"34.34","long":"-98.87"},{"city":"HOMINY","lat":"36.42","long":"-96.39"},{"city":"HOOKER","lat":"36.85","long":"-101.21"},{"city":"HOPETON","lat":"36.68","long":"-98.67"},{"city":"HOWE","lat":"34.94","long":"-94.63"},{"city":"HOYT","lat":"35.28","long":"-95.3"},{"city":"HUGO","lat":"34.01","long":"-95.51"},{"city":"HULBERT","lat":"35.93","long":"-95.14"},{"city":"HUNTER","lat":"36.56","long":"-97.66"},{"city":"HYDRO","lat":"35.54","long":"-98.57"},{"city":"IDABEL","lat":"33.9","long":"-94.81"},{"city":"INDIAHOMA","lat":"34.62","long":"-98.75"},{"city":"INDIANOLA","lat":"35.16","long":"-95.77"},{"city":"INOLA","lat":"36.13","long":"-95.53"},{"city":"ISABELLA","lat":"36.23","long":"-98.33"},{"city":"JAY","lat":"36.42","long":"-94.79"},{"city":"JENKS","lat":"36","long":"-95.97"},{"city":"JENNINGS","lat":"36.18","long":"-96.56"},{"city":"JET","lat":"36.66","long":"-98.18"},{"city":"JONES","lat":"35.56","long":"-97.29"},{"city":"KANSAS","lat":"36.2","long":"-94.79"},{"city":"KAW CITY","lat":"36.76","long":"-96.86"},{"city":"KELLYVILLE","lat":"35.94","long":"-96.21"},{"city":"KEMP","lat":"33.76","long":"-96.35"},{"city":"KENEFIC","lat":"34.14","long":"-96.36"},{"city":"KENTON","lat":"36.9","long":"-102.97"},{"city":"KEOTA","lat":"35.25","long":"-94.92"},{"city":"KETCHUM","lat":"36.52","long":"-95.02"},{"city":"KEYES","lat":"36.8","long":"-102.25"},{"city":"KIAMICHI CHRISTIAN MISSION","lat":"34.53","long":"-94.95"},{"city":"KIEFER","lat":"35.94","long":"-96.05"},{"city":"KINGFISHER","lat":"35.84","long":"-97.93"},{"city":"KINGSTON","lat":"34","long":"-96.72"},{"city":"KINTA","lat":"35.11","long":"-95.23"},{"city":"KIOWA","lat":"34.72","long":"-95.9"},{"city":"KONAWA","lat":"34.95","long":"-96.75"},{"city":"KREBS","lat":"34.92","long":"-95.71"},{"city":"KREMLIN","lat":"36.54","long":"-97.83"},{"city":"LAHOMA","lat":"36.38","long":"-98.09"},{"city":"LAMAR","lat":"35.09","long":"-96.12"},{"city":"LAMONT","lat":"36.69","long":"-97.55"},{"city":"LANE","lat":"34.3","long":"-95.98"},{"city":"LANGLEY","lat":"36.46","long":"-95.05"},{"city":"LANGSTON","lat":"35.94","long":"-97.26"},{"city":"LAVERNE","lat":"36.7","long":"-99.89"},{"city":"LAWTON","lat":"34.6","long":"-98.42"},{"city":"LEBANON","lat":"33.98","long":"-96.91"},{"city":"LEEDEY","lat":"35.86","long":"-99.34"},{"city":"LEFLORE","lat":"34.92","long":"-94.86"},{"city":"LEHIGH","lat":"34.46","long":"-96.22"},{"city":"LENAPAH","lat":"36.85","long":"-95.63"},{"city":"LEON","lat":"33.87","long":"-97.42"},{"city":"LEONARD","lat":"35.92","long":"-95.8"},{"city":"LEQUIRE","lat":"35.1","long":"-95.1"},{"city":"LEXINGTON","lat":"35.01","long":"-97.33"},{"city":"LINDSAY","lat":"34.83","long":"-97.6"},{"city":"LOCO","lat":"34.32","long":"-97.68"},{"city":"LOCUST GROVE","lat":"36.19","long":"-95.16"},{"city":"LONE GROVE","lat":"34.18","long":"-97.27"},{"city":"LONE WOLF","lat":"34.99","long":"-99.24"},{"city":"LONGDALE","lat":"36.13","long":"-98.55"},{"city":"LOOKEBA","lat":"35.36","long":"-98.36"},{"city":"LOVELAND","lat":"34.3","long":"-98.77"},{"city":"LOYAL","lat":"35.97","long":"-98.11"},{"city":"LUCIEN","lat":"36.28","long":"-97.45"},{"city":"LUTHER","lat":"35.66","long":"-97.18"},{"city":"MACOMB","lat":"35.14","long":"-97"},{"city":"MADILL","lat":"34.09","long":"-96.77"},{"city":"MANCHESTER","lat":"36.99","long":"-98.03"},{"city":"MANGUM","lat":"34.87","long":"-99.5"},{"city":"MANITOU","lat":"34.5","long":"-98.98"},{"city":"MANNFORD","lat":"36.12","long":"-96.32"},{"city":"MANNSVILLE","lat":"34.18","long":"-96.88"},{"city":"MARAMEC","lat":"36.24","long":"-96.68"},{"city":"MARBLE CITY","lat":"35.58","long":"-94.81"},{"city":"MARIETTA","lat":"33.93","long":"-97.12"},{"city":"MARLAND","lat":"36.56","long":"-97.15"},{"city":"MARLOW","lat":"34.63","long":"-97.96"},{"city":"MARSHALL","lat":"36.15","long":"-97.62"},{"city":"MARTHA","lat":"34.72","long":"-99.38"},{"city":"MAUD","lat":"35.13","long":"-96.77"},{"city":"MAY","lat":"36.61","long":"-99.74"},{"city":"MAYSVILLE","lat":"34.81","long":"-97.41"},{"city":"MCALESTER","lat":"34.92","long":"-95.76"},{"city":"MCCURTAIN","lat":"35.13","long":"-95.02"},{"city":"MCLOUD","lat":"35.41","long":"-97.09"},{"city":"MEAD","lat":"34","long":"-96.51"},{"city":"MEDFORD","lat":"36.8","long":"-97.73"},{"city":"MEDICINE PARK","lat":"34.72","long":"-98.46"},{"city":"MEEKER","lat":"35.48","long":"-96.89"},{"city":"MEERS","lat":"34.78","long":"-98.57"},{"city":"MENO","lat":"36.38","long":"-98.17"},{"city":"MERIDIAN","lat":"34.42","long":"-97.97"},{"city":"MIAMI","lat":"36.88","long":"-94.87"},{"city":"MILBURN","lat":"34.24","long":"-96.55"},{"city":"MILFAY","lat":"35.75","long":"-96.57"},{"city":"MILL CREEK","lat":"34.4","long":"-96.82"},{"city":"MILLERTON","lat":"33.98","long":"-95.01"},{"city":"MINCO","lat":"35.31","long":"-97.95"},{"city":"MOFFETT","lat":"35.38","long":"-94.44"},{"city":"MONROE","lat":"34.98","long":"-94.52"},{"city":"MOODYS","lat":"36.07","long":"-94.94"},{"city":"MOORELAND","lat":"36.43","long":"-99.2"},{"city":"MORRIS","lat":"35.61","long":"-95.86"},{"city":"MORRISON","lat":"36.29","long":"-97.01"},{"city":"MOUNDS","lat":"35.87","long":"-96.05"},{"city":"MOUNTAIN PARK","lat":"34.69","long":"-98.95"},{"city":"MOUNTAIN VIEW","lat":"35.09","long":"-98.75"},{"city":"MOYERS","lat":"34.32","long":"-95.65"},{"city":"MULDROW","lat":"35.4","long":"-94.6"},{"city":"MULHALL","lat":"36.06","long":"-97.4"},{"city":"MUSE","lat":"34.67","long":"-94.77"},{"city":"MUSKOGEE","lat":"35.74","long":"-95.35"},{"city":"MUSTANG","lat":"35.39","long":"-97.72"},{"city":"MUTUAL","lat":"36.22","long":"-99.16"},{"city":"NARDIN","lat":"36.8","long":"-97.44"},{"city":"NASH","lat":"36.66","long":"-98.05"},{"city":"NASHOBA","lat":"34.48","long":"-95.22"},{"city":"NEWALLA","lat":"35.4","long":"-97.17"},{"city":"NEWCASTLE","lat":"35.24","long":"-97.59"},{"city":"NEWKIRK","lat":"36.88","long":"-97.05"},{"city":"NICOMA PARK","lat":"35.49","long":"-97.32"},{"city":"NINNEKAH","lat":"34.95","long":"-97.92"},{"city":"NOBLE","lat":"35.14","long":"-97.37"},{"city":"NORMAN","lat":"35.22","long":"-97.34"},{"city":"NORTH MIAMI","lat":"36.91","long":"-94.87"},{"city":"NOWATA","lat":"36.69","long":"-95.63"},{"city":"OAKHURST","lat":"36.08","long":"-96.06"},{"city":"OAKS","lat":"36.16","long":"-94.85"},{"city":"OAKWOOD","lat":"35.93","long":"-98.7"},{"city":"OCHELATA","lat":"36.6","long":"-95.98"},{"city":"OILTON","lat":"36.08","long":"-96.58"},{"city":"OKARCHE","lat":"35.72","long":"-97.97"},{"city":"OKAY","lat":"35.85","long":"-95.31"},{"city":"OKEENE","lat":"36.11","long":"-98.31"},{"city":"OKEMAH","lat":"35.42","long":"-96.29"},{"city":"OKLAHOMA CITY","lat":"35.46","long":"-97.51"},{"city":"OKMULGEE","lat":"35.63","long":"-95.95"},{"city":"OKTAHA","lat":"35.57","long":"-95.47"},{"city":"OLUSTEE","lat":"34.54","long":"-99.42"},{"city":"OMEGA","lat":"35.86","long":"-98.19"},{"city":"OOLOGAH","lat":"36.44","long":"-95.71"},{"city":"ORLANDO","lat":"36.14","long":"-97.37"},{"city":"OSAGE","lat":"36.29","long":"-96.41"},{"city":"OSCAR","lat":"33.98","long":"-97.75"},{"city":"OVERBROOK","lat":"34.07","long":"-97.15"},{"city":"OWASSO","lat":"36.28","long":"-95.83"},{"city":"PADEN","lat":"35.5","long":"-96.56"},{"city":"PANAMA","lat":"35.17","long":"-94.66"},{"city":"PANOLA","lat":"34.92","long":"-95.22"},{"city":"PAOLI","lat":"34.82","long":"-97.26"},{"city":"PARK HILL","lat":"35.75","long":"-95.02"},{"city":"PAULS VALLEY","lat":"34.72","long":"-97.22"},{"city":"PAWHUSKA","lat":"36.66","long":"-96.33"},{"city":"PAWNEE","lat":"36.33","long":"-96.8"},{"city":"PEGGS","lat":"36.08","long":"-95.1"},{"city":"PERKINS","lat":"35.97","long":"-97.02"},{"city":"PERRY","lat":"36.28","long":"-97.3"},{"city":"PICHER","lat":"36.98","long":"-94.83"},{"city":"PICKENS","lat":"34.4","long":"-95.03"},{"city":"PIEDMONT","lat":"35.67","long":"-97.75"},{"city":"PITTSBURG","lat":"34.71","long":"-95.85"},{"city":"PLATTER","lat":"33.9","long":"-96.53"},{"city":"POCASSET","lat":"35.2","long":"-97.93"},{"city":"POCOLA","lat":"35.24","long":"-94.47"},{"city":"PONCA CITY","lat":"36.72","long":"-97.06"},{"city":"POND CREEK","lat":"36.66","long":"-97.8"},{"city":"PORTER","lat":"35.86","long":"-95.52"},{"city":"PORUM","lat":"35.35","long":"-95.26"},{"city":"POTEAU","lat":"35.04","long":"-94.63"},{"city":"PRAGUE","lat":"35.48","long":"-96.69"},{"city":"PRESTON","lat":"35.72","long":"-95.98"},{"city":"PROCTOR","lat":"35.97","long":"-94.78"},{"city":"PRUE","lat":"36.24","long":"-96.26"},{"city":"PRYOR","lat":"36.3","long":"-95.32"},{"city":"PURCELL","lat":"35.01","long":"-97.37"},{"city":"PUTNAM","lat":"35.99","long":"-99.23"},{"city":"QUAPAW","lat":"36.95","long":"-94.78"},{"city":"QUINTON","lat":"35.12","long":"-95.36"},{"city":"RALSTON","lat":"36.5","long":"-96.73"},{"city":"RAMONA","lat":"36.53","long":"-95.92"},{"city":"RANDLETT","lat":"34.17","long":"-98.46"},{"city":"RATLIFF CITY","lat":"34.44","long":"-97.51"},{"city":"RATTAN","lat":"34.19","long":"-95.41"},{"city":"RAVIA","lat":"34.24","long":"-96.75"},{"city":"RED OAK","lat":"34.95","long":"-95.08"},{"city":"RED ROCK","lat":"36.45","long":"-97.17"},{"city":"REDBIRD","lat":"35.88","long":"-95.58"},{"city":"RENTIESVILLE","lat":"35.52","long":"-95.49"},{"city":"REYDON","lat":"35.65","long":"-99.92"},{"city":"RINGLING","lat":"34.17","long":"-97.59"},{"city":"RINGOLD","lat":"34.21","long":"-95.13"},{"city":"RINGWOOD","lat":"36.38","long":"-98.24"},{"city":"RIPLEY","lat":"36.01","long":"-96.9"},{"city":"ROCKY","lat":"35.15","long":"-99.05"},{"city":"ROFF","lat":"34.62","long":"-96.84"},{"city":"ROLAND","lat":"35.41","long":"-94.51"},{"city":"ROOSEVELT","lat":"34.84","long":"-99.02"},{"city":"ROSE","lat":"36.22","long":"-95.03"},{"city":"ROSSTON","lat":"36.81","long":"-99.92"},{"city":"RUFE","lat":"34.12","long":"-95.15"},{"city":"RUSH SPRINGS","lat":"34.77","long":"-97.95"},{"city":"RYAN","lat":"34.02","long":"-97.95"},{"city":"S COFFEYVILLE","lat":"36.99","long":"-95.62"},{"city":"SAINT LOUIS","lat":"35.07","long":"-96.86"},{"city":"SALINA","lat":"36.29","long":"-95.15"},{"city":"SALLISAW","lat":"35.46","long":"-94.8"},{"city":"SAND SPRINGS","lat":"36.13","long":"-96.13"},{"city":"SAPULPA","lat":"35.99","long":"-96.09"},{"city":"SASAKWA","lat":"34.94","long":"-96.52"},{"city":"SAVANNA","lat":"34.82","long":"-95.83"},{"city":"SAWYER","lat":"34.02","long":"-95.37"},{"city":"SAYRE","lat":"35.29","long":"-99.63"},{"city":"SCHULTER","lat":"35.52","long":"-95.95"},{"city":"SEILING","lat":"36.14","long":"-98.92"},{"city":"SEMINOLE","lat":"35.23","long":"-96.64"},{"city":"SENTINEL","lat":"35.15","long":"-99.17"},{"city":"SHADY POINT","lat":"35.13","long":"-94.66"},{"city":"SHAMROCK","lat":"35.91","long":"-96.57"},{"city":"SHARON","lat":"36.27","long":"-99.33"},{"city":"SHATTUCK","lat":"36.27","long":"-99.87"},{"city":"SHAWNEE","lat":"35.33","long":"-96.91"},{"city":"SHIDLER","lat":"36.78","long":"-96.65"},{"city":"SKIATOOK","lat":"36.36","long":"-96.03"},{"city":"SLICK","lat":"35.77","long":"-96.26"},{"city":"SMITHVILLE","lat":"34.46","long":"-94.64"},{"city":"SNOW","lat":"34.4","long":"-95.42"},{"city":"SNYDER","lat":"34.65","long":"-98.95"},{"city":"SOPER","lat":"34.03","long":"-95.69"},{"city":"SOUTHARD","lat":"36.03","long":"-98.47"},{"city":"SPARKS","lat":"35.61","long":"-96.81"},{"city":"SPAVINAW","lat":"36.39","long":"-95.05"},{"city":"SPENCER","lat":"35.5","long":"-97.37"},{"city":"SPENCERVILLE","lat":"34.13","long":"-95.39"},{"city":"SPERRY","lat":"36.29","long":"-95.98"},{"city":"SPIRO","lat":"35.24","long":"-94.61"},{"city":"SPRINGER","lat":"34.28","long":"-97.12"},{"city":"STERLING","lat":"34.74","long":"-98.17"},{"city":"STIDHAM","lat":"35.36","long":"-95.7"},{"city":"STIGLER","lat":"35.25","long":"-95.12"},{"city":"STILLWATER","lat":"36.13","long":"-97.07"},{"city":"STILWELL","lat":"35.81","long":"-94.63"},{"city":"STONEWALL","lat":"34.65","long":"-96.52"},{"city":"STRANG","lat":"36.41","long":"-95.13"},{"city":"STRATFORD","lat":"34.79","long":"-96.96"},{"city":"STRINGTOWN","lat":"34.46","long":"-96.05"},{"city":"STROUD","lat":"35.76","long":"-96.64"},{"city":"STUART","lat":"34.9","long":"-96.09"},{"city":"SULPHUR","lat":"34.5","long":"-96.97"},{"city":"SWEETWATER","lat":"35.42","long":"-99.92"},{"city":"SWINK","lat":"34.02","long":"-95.2"},{"city":"TAFT","lat":"35.75","long":"-95.54"},{"city":"TAHLEQUAH","lat":"35.91","long":"-94.97"},{"city":"TALALA","lat":"36.53","long":"-95.7"},{"city":"TALIHINA","lat":"34.75","long":"-95.04"},{"city":"TALOGA","lat":"36.04","long":"-98.96"},{"city":"TATUMS","lat":"34.47","long":"-97.46"},{"city":"TECUMSEH","lat":"35.26","long":"-96.93"},{"city":"TEMPLE","lat":"34.27","long":"-98.23"},{"city":"TERLTON","lat":"36.18","long":"-96.49"},{"city":"TERRAL","lat":"33.89","long":"-97.93"},{"city":"TEXHOMA","lat":"36.5","long":"-101.78"},{"city":"TEXOLA","lat":"35.21","long":"-99.98"},{"city":"THACKERVILLE","lat":"33.79","long":"-97.14"},{"city":"THOMAS","lat":"35.74","long":"-98.74"},{"city":"TIPTON","lat":"34.5","long":"-99.13"},{"city":"TISHOMINGO","lat":"34.23","long":"-96.67"},{"city":"TONKAWA","lat":"36.68","long":"-97.3"},{"city":"TRYON","lat":"35.87","long":"-96.96"},{"city":"TULSA","lat":"36.12","long":"-95.91"},{"city":"TUPELO","lat":"34.6","long":"-96.42"},{"city":"TURPIN","lat":"36.87","long":"-100.88"},{"city":"TUSKAHOMA","lat":"34.62","long":"-95.27"},{"city":"TUSSY","lat":"34.5","long":"-97.54"},{"city":"TUTTLE","lat":"35.29","long":"-97.75"},{"city":"TWIN OAKS","lat":"36.2","long":"-94.85"},{"city":"TYRONE","lat":"36.95","long":"-101.06"},{"city":"UNION CITY","lat":"35.4","long":"-97.89"},{"city":"VALLIANT","lat":"34","long":"-95.08"},{"city":"VELMA","lat":"34.45","long":"-97.66"},{"city":"VERA","lat":"36.44","long":"-95.88"},{"city":"VERDEN","lat":"35.08","long":"-98.08"},{"city":"VIAN","lat":"35.49","long":"-94.97"},{"city":"VICI","lat":"36.14","long":"-99.29"},{"city":"VINITA","lat":"36.64","long":"-95.15"},{"city":"VINSON","lat":"34.9","long":"-99.87"},{"city":"WAGONER","lat":"35.95","long":"-95.38"},{"city":"WAINWRIGHT","lat":"35.61","long":"-95.56"},{"city":"WAKITA","lat":"36.88","long":"-97.92"},{"city":"WALTERS","lat":"34.35","long":"-98.3"},{"city":"WANETTE","lat":"34.96","long":"-97.03"},{"city":"WANN","lat":"36.91","long":"-95.8"},{"city":"WAPANUCKA","lat":"34.37","long":"-96.42"},{"city":"WARDVILLE","lat":"34.66","long":"-96.02"},{"city":"WARNER","lat":"35.49","long":"-95.3"},{"city":"WASHINGTON","lat":"35.05","long":"-97.48"},{"city":"WASHITA","lat":"35.1","long":"-98.34"},{"city":"WATONGA","lat":"35.84","long":"-98.41"},{"city":"WATSON","lat":"34.43","long":"-94.55"},{"city":"WATTS","lat":"36.1","long":"-94.57"},{"city":"WAUKOMIS","lat":"36.28","long":"-97.9"},{"city":"WAURIKA","lat":"34.18","long":"-98.02"},{"city":"WAYNE","lat":"34.91","long":"-97.31"},{"city":"WAYNOKA","lat":"36.58","long":"-98.87"},{"city":"WEATHERFORD","lat":"35.53","long":"-98.68"},{"city":"WEBBERS FALLS","lat":"35.5","long":"-95.16"},{"city":"WELCH","lat":"36.87","long":"-95.09"},{"city":"WELEETKA","lat":"35.33","long":"-96.13"},{"city":"WELLING","lat":"35.91","long":"-94.85"},{"city":"WELLSTON","lat":"35.68","long":"-97.06"},{"city":"WESTVILLE","lat":"35.98","long":"-94.57"},{"city":"WETUMKA","lat":"35.24","long":"-96.23"},{"city":"WEWOKA","lat":"35.14","long":"-96.49"},{"city":"WHEATLAND","lat":"35.39","long":"-97.65"},{"city":"WHITEFIELD","lat":"35.25","long":"-95.23"},{"city":"WHITESBORO","lat":"34.68","long":"-94.88"},{"city":"WILBURTON","lat":"34.91","long":"-95.3"},{"city":"WILLOW","lat":"35.05","long":"-99.5"},{"city":"WILSON","lat":"34.15","long":"-97.43"},{"city":"WISTER","lat":"34.97","long":"-94.72"},{"city":"WOODWARD","lat":"36.42","long":"-99.4"},{"city":"WRIGHT CITY","lat":"34.06","long":"-95"},{"city":"WYANDOTTE","lat":"36.79","long":"-94.72"},{"city":"WYNNEWOOD","lat":"34.64","long":"-97.16"},{"city":"WYNONA","lat":"36.54","long":"-96.32"},{"city":"YALE","lat":"36.11","long":"-96.7"},{"city":"YUKON","lat":"35.51","long":"-97.76"}]