[{"city":"ALPINE","lat":"40.5","long":"-111.7"},{"city":"ALTAMONT","lat":"40.43","long":"-110.25"},{"city":"ALTON","lat":"37.46","long":"-112.5"},{"city":"ALTONAH","lat":"40.47","long":"-110.32"},{"city":"AMERICAN FORK","lat":"40.39","long":"-111.78"},{"city":"ANETH","lat":"37.2","long":"-109.29"},{"city":"ANNABELLA","lat":"38.71","long":"-112.06"},{"city":"ANTIMONY","lat":"38.09","long":"-112"},{"city":"AURORA","lat":"38.91","long":"-111.93"},{"city":"AXTELL","lat":"39.08","long":"-111.84"},{"city":"BEAR RIVER CITY","lat":"41.61","long":"-112.12"},{"city":"BEAVER","lat":"38.38","long":"-112.66"},{"city":"BERYL","lat":"37.87","long":"-113.66"},{"city":"BICKNELL","lat":"38.33","long":"-111.55"},{"city":"BINGHAM CANYON","lat":"40.59","long":"-112.1"},{"city":"BLANDING","lat":"37.55","long":"-109.48"},{"city":"BLUEBELL","lat":"40.33","long":"-110.2"},{"city":"BLUFF","lat":"37.14","long":"-109.52"},{"city":"BONANZA","lat":"40.45","long":"-109.53"},{"city":"BOULDER","lat":"37.92","long":"-111.48"},{"city":"BOUNTIFUL","lat":"40.88","long":"-111.82"},{"city":"BRIAN HEAD","lat":"37.64","long":"-112.8"},{"city":"BRIGHAM CITY","lat":"41.51","long":"-112.04"},{"city":"BRYCE","lat":"37.63","long":"-112.2"},{"city":"BRYCE CANYON","lat":"37.62","long":"-112.17"},{"city":"CACHE JUNCTION","lat":"41.82","long":"-111.99"},{"city":"CANNONVILLE","lat":"37.57","long":"-112.08"},{"city":"CASTLE DALE","lat":"39.2","long":"-110.92"},{"city":"CEDAR CITY","lat":"37.81","long":"-113.22"},{"city":"CEDAR VALLEY","lat":"40.33","long":"-112.11"},{"city":"CENTERFIELD","lat":"39.1","long":"-111.79"},{"city":"CENTERVILLE","lat":"40.93","long":"-111.88"},{"city":"CENTRAL","lat":"37.39","long":"-113.63"},{"city":"CHESTER","lat":"39.45","long":"-111.57"},{"city":"CIRCLEVILLE","lat":"38.18","long":"-112.22"},{"city":"CISCO","lat":"38.97","long":"-109.31"},{"city":"CLARKSTON","lat":"41.92","long":"-112.06"},{"city":"CLAWSON","lat":"39.04","long":"-110.98"},{"city":"CLEARFIELD","lat":"41.11","long":"-112.05"},{"city":"CLEVELAND","lat":"39.4","long":"-110.91"},{"city":"COALVILLE","lat":"40.88","long":"-111.31"},{"city":"COLLINSTON","lat":"41.79","long":"-112.06"},{"city":"CORINNE","lat":"41.46","long":"-112.47"},{"city":"CORNISH","lat":"41.96","long":"-112"},{"city":"CROYDON","lat":"41.13","long":"-111.54"},{"city":"DAMMERON VALLEY","lat":"37.26","long":"-113.69"},{"city":"DELTA","lat":"39.29","long":"-112.56"},{"city":"DEWEYVILLE","lat":"41.72","long":"-112.08"},{"city":"DRAPER","lat":"40.49","long":"-111.84"},{"city":"DUCHESNE","lat":"40.1","long":"-110.49"},{"city":"DUCK CREEK VILLAGE","lat":"37.4","long":"-112.63"},{"city":"DUGWAY","lat":"40.32","long":"-112.79"},{"city":"DUTCH JOHN","lat":"40.91","long":"-109.34"},{"city":"EAGLE MOUNTAIN","lat":"40.37","long":"-112.02"},{"city":"EAST CARBON","lat":"39.51","long":"-110.45"},{"city":"ECHO","lat":"41","long":"-111.44"},{"city":"EDEN","lat":"41.33","long":"-111.79"},{"city":"ELBERTA","lat":"39.97","long":"-111.98"},{"city":"ELMO","lat":"39.28","long":"-110.67"},{"city":"ELSINORE","lat":"38.68","long":"-112.14"},{"city":"EMERY","lat":"38.9","long":"-110.95"},{"city":"ENTERPRISE","lat":"37.52","long":"-113.75"},{"city":"EPHRAIM","lat":"39.35","long":"-111.57"},{"city":"ESCALANTE","lat":"37.77","long":"-111.6"},{"city":"EUREKA","lat":"39.95","long":"-112.17"},{"city":"FAIRVIEW","lat":"39.78","long":"-111.44"},{"city":"FARMINGTON","lat":"40.99","long":"-111.86"},{"city":"FAYETTE","lat":"39.29","long":"-111.8"},{"city":"FERRON","lat":"39.1","long":"-111.16"},{"city":"FIELDING","lat":"41.82","long":"-112.1"},{"city":"FILLMORE","lat":"39.01","long":"-112.27"},{"city":"FORT DUCHESNE","lat":"40.29","long":"-109.8"},{"city":"FOUNTAIN GREEN","lat":"39.64","long":"-111.61"},{"city":"FRUITLAND","lat":"40.15","long":"-110.98"},{"city":"GARDEN CITY","lat":"41.91","long":"-111.25"},{"city":"GARLAND","lat":"41.79","long":"-112.17"},{"city":"GARRISON","lat":"39.06","long":"-113.83"},{"city":"GLENDALE","lat":"37.38","long":"-112.58"},{"city":"GLENWOOD","lat":"38.76","long":"-111.97"},{"city":"GOSHEN","lat":"39.93","long":"-111.88"},{"city":"GRANTSVILLE","lat":"40.67","long":"-112.76"},{"city":"GREEN RIVER","lat":"38.98","long":"-110.65"},{"city":"GREENVILLE","lat":"38.22","long":"-112.8"},{"city":"GREENWICH","lat":"38.45","long":"-111.9"},{"city":"GROUSE CREEK","lat":"41.68","long":"-113.83"},{"city":"GUNLOCK","lat":"37.24","long":"-113.79"},{"city":"GUNNISON","lat":"39.22","long":"-111.75"},{"city":"HANKSVILLE","lat":"38.27","long":"-110.75"},{"city":"HANNA","lat":"40.54","long":"-110.73"},{"city":"HATCH","lat":"37.6","long":"-112.47"},{"city":"HEBER CITY","lat":"40.43","long":"-111.19"},{"city":"HELPER","lat":"39.67","long":"-111.01"},{"city":"HENEFER","lat":"40.97","long":"-111.51"},{"city":"HENRIEVILLE","lat":"37.64","long":"-111.92"},{"city":"HERRIMAN","lat":"40.48","long":"-112.07"},{"city":"HILDALE","lat":"37","long":"-112.96"},{"city":"HILL AFB","lat":"41.12","long":"-111.98"},{"city":"HINCKLEY","lat":"39.37","long":"-112.73"},{"city":"HOLDEN","lat":"39.07","long":"-112.31"},{"city":"HONEYVILLE","lat":"41.64","long":"-112.09"},{"city":"HOOPER","lat":"41.15","long":"-112.14"},{"city":"HOWELL","lat":"41.79","long":"-112.49"},{"city":"HUNTINGTON","lat":"39.41","long":"-111"},{"city":"HUNTSVILLE","lat":"41.28","long":"-111.69"},{"city":"HURRICANE","lat":"37.13","long":"-112.97"},{"city":"HYDE PARK","lat":"41.8","long":"-111.8"},{"city":"HYRUM","lat":"41.6","long":"-111.72"},{"city":"IBAPAH","lat":"40.2","long":"-113.86"},{"city":"IVINS","lat":"37.18","long":"-113.63"},{"city":"JENSEN","lat":"40.47","long":"-109.26"},{"city":"JOSEPH","lat":"38.62","long":"-112.33"},{"city":"JUNCTION","lat":"38.23","long":"-112.26"},{"city":"KAMAS","lat":"40.62","long":"-111.15"},{"city":"KANAB","lat":"37.27","long":"-112.23"},{"city":"KANARRAVILLE","lat":"37.53","long":"-113.17"},{"city":"KANOSH","lat":"38.81","long":"-112.42"},{"city":"KAYSVILLE","lat":"41.02","long":"-111.92"},{"city":"KENILWORTH","lat":"39.69","long":"-110.8"},{"city":"KINGSTON","lat":"38.23","long":"-112.19"},{"city":"KOOSHAREM","lat":"38.51","long":"-111.87"},{"city":"LA SAL","lat":"38.23","long":"-109.17"},{"city":"LA VERKIN","lat":"37.27","long":"-113.19"},{"city":"LAKE POWELL","lat":"37.57","long":"-110.32"},{"city":"LAKETOWN","lat":"41.81","long":"-111.37"},{"city":"LAPOINT","lat":"40.39","long":"-109.84"},{"city":"LAYTON","lat":"41.08","long":"-111.9"},{"city":"LEAMINGTON","lat":"39.51","long":"-112.26"},{"city":"LEEDS","lat":"37.23","long":"-113.36"},{"city":"LEHI","lat":"40.32","long":"-111.96"},{"city":"LEVAN","lat":"39.52","long":"-111.88"},{"city":"LEWISTON","lat":"41.95","long":"-111.86"},{"city":"LINDON","lat":"40.32","long":"-111.74"},{"city":"LOA","lat":"38.4","long":"-111.58"},{"city":"LOGAN","lat":"41.7","long":"-111.87"},{"city":"LYMAN","lat":"38.37","long":"-111.6"},{"city":"LYNNDYL","lat":"39.5","long":"-112.48"},{"city":"MAGNA","lat":"40.7","long":"-112.08"},{"city":"MANILA","lat":"40.94","long":"-109.79"},{"city":"MANTI","lat":"39.25","long":"-111.52"},{"city":"MANTUA","lat":"41.48","long":"-111.94"},{"city":"MAPLETON","lat":"40.11","long":"-111.48"},{"city":"MARYSVALE","lat":"38.41","long":"-112.24"},{"city":"MAYFIELD","lat":"39.1","long":"-111.71"},{"city":"MEADOW","lat":"38.88","long":"-112.4"},{"city":"MENDON","lat":"41.71","long":"-111.98"},{"city":"MEXICAN HAT","lat":"37.3","long":"-110.02"},{"city":"MIDVALE","lat":"40.6","long":"-111.88"},{"city":"MIDWAY","lat":"40.5","long":"-111.52"},{"city":"MILFORD","lat":"38.36","long":"-113.11"},{"city":"MILLVILLE","lat":"41.68","long":"-111.82"},{"city":"MINERSVILLE","lat":"38.21","long":"-112.93"},{"city":"MOAB","lat":"38.45","long":"-109.6"},{"city":"MODENA","lat":"37.87","long":"-113.86"},{"city":"MONA","lat":"39.85","long":"-111.84"},{"city":"MONROE","lat":"38.63","long":"-111.75"},{"city":"MONTEZUMA CREEK","lat":"37.21","long":"-109.19"},{"city":"MONTICELLO","lat":"37.98","long":"-109.29"},{"city":"MONUMENT VALLEY","lat":"37.08","long":"-110.25"},{"city":"MORGAN","lat":"41.01","long":"-111.67"},{"city":"MORONI","lat":"39.54","long":"-111.61"},{"city":"MOUNT CARMEL","lat":"37.24","long":"-112.77"},{"city":"MOUNT PLEASANT","lat":"39.55","long":"-111.39"},{"city":"MOUNTAIN HOME","lat":"40.41","long":"-110.4"},{"city":"MYTON","lat":"40.17","long":"-110.02"},{"city":"NEOLA","lat":"40.41","long":"-109.99"},{"city":"NEPHI","lat":"39.68","long":"-111.83"},{"city":"NEW HARMONY","lat":"37.38","long":"-113.32"},{"city":"NEWCASTLE","lat":"37.82","long":"-113.72"},{"city":"NEWTON","lat":"41.87","long":"-111.99"},{"city":"NORTH SALT LAKE","lat":"40.84","long":"-111.9"},{"city":"OAK CITY","lat":"39.37","long":"-112.28"},{"city":"OAKLEY","lat":"40.81","long":"-111.11"},{"city":"OGDEN","lat":"41.24","long":"-111.99"},{"city":"ORANGEVILLE","lat":"39.44","long":"-111.14"},{"city":"ORDERVILLE","lat":"37.28","long":"-112.71"},{"city":"OREM","lat":"40.31","long":"-111.71"},{"city":"PANGUITCH","lat":"37.86","long":"-112.34"},{"city":"PARADISE","lat":"41.48","long":"-111.77"},{"city":"PARAGONAH","lat":"37.93","long":"-112.64"},{"city":"PARK CITY","lat":"40.64","long":"-111.49"},{"city":"PARK VALLEY","lat":"41.74","long":"-113.44"},{"city":"PAROWAN","lat":"37.91","long":"-112.85"},{"city":"PAYSON","lat":"40.01","long":"-111.73"},{"city":"PEOA","lat":"40.74","long":"-111.36"},{"city":"PINE VALLEY","lat":"37.47","long":"-113.51"},{"city":"PLEASANT GROVE","lat":"40.46","long":"-111.63"},{"city":"PLYMOUTH","lat":"41.91","long":"-112.12"},{"city":"PORTAGE","lat":"41.89","long":"-112.38"},{"city":"PRICE","lat":"39.57","long":"-110.8"},{"city":"PROVIDENCE","lat":"41.69","long":"-111.81"},{"city":"PROVO","lat":"40.22","long":"-111.69"},{"city":"RANDLETT","lat":"40.18","long":"-109.71"},{"city":"RANDOLPH","lat":"41.65","long":"-111.21"},{"city":"REDMOND","lat":"39","long":"-111.88"},{"city":"RICHFIELD","lat":"38.75","long":"-112.1"},{"city":"RICHMOND","lat":"41.9","long":"-111.81"},{"city":"RIVERSIDE","lat":"41.78","long":"-112.15"},{"city":"RIVERTON","lat":"40.47","long":"-112"},{"city":"ROCKVILLE","lat":"37.15","long":"-113.05"},{"city":"ROOSEVELT","lat":"40.28","long":"-110"},{"city":"ROY","lat":"41.17","long":"-112.04"},{"city":"RUSH VALLEY","lat":"40.34","long":"-112.48"},{"city":"SAINT GEORGE","lat":"37.18","long":"-113.6"},{"city":"SALEM","lat":"40.02","long":"-111.64"},{"city":"SALINA","lat":"38.95","long":"-111.83"},{"city":"SALT LAKE CITY","lat":"40.75","long":"-111.9"},{"city":"SANDY","lat":"40.57","long":"-111.89"},{"city":"SANTA CLARA","lat":"37.13","long":"-113.65"},{"city":"SANTAQUIN","lat":"39.99","long":"-111.81"},{"city":"SARATOGA SPRINGS","lat":"40.28","long":"-111.88"},{"city":"SCIPIO","lat":"39.18","long":"-112.05"},{"city":"SEVIER","lat":"38.55","long":"-112.35"},{"city":"SIGURD","lat":"38.8","long":"-111.88"},{"city":"SMITHFIELD","lat":"41.82","long":"-111.87"},{"city":"SNOWVILLE","lat":"41.81","long":"-112.87"},{"city":"SOUTH JORDAN","lat":"40.55","long":"-111.96"},{"city":"SPANISH FORK","lat":"40.02","long":"-111.55"},{"city":"SPRING CITY","lat":"39.44","long":"-111.45"},{"city":"SPRINGDALE","lat":"37.25","long":"-112.99"},{"city":"SPRINGVILLE","lat":"40.2","long":"-111.47"},{"city":"STERLING","lat":"39.19","long":"-111.68"},{"city":"STOCKTON","lat":"40.3","long":"-112.3"},{"city":"SUMMIT","lat":"37.77","long":"-112.93"},{"city":"SUNNYSIDE","lat":"39.67","long":"-110.58"},{"city":"SYRACUSE","lat":"41.05","long":"-112.06"},{"city":"TABIONA","lat":"40.38","long":"-110.65"},{"city":"TALMAGE","lat":"40.39","long":"-110.43"},{"city":"TEASDALE","lat":"38.23","long":"-111.47"},{"city":"THOMPSON","lat":"39.18","long":"-109.49"},{"city":"TOOELE","lat":"40.57","long":"-112.33"},{"city":"TOQUERVILLE","lat":"37.26","long":"-113.27"},{"city":"TORREY","lat":"38.33","long":"-111.06"},{"city":"TREMONTON","lat":"41.69","long":"-112.27"},{"city":"TRENTON","lat":"41.92","long":"-111.92"},{"city":"TRIDELL","lat":"40.44","long":"-109.84"},{"city":"TROPIC","lat":"37.69","long":"-112.03"},{"city":"VERNAL","lat":"40.55","long":"-109.57"},{"city":"VERNON","lat":"40.06","long":"-112.34"},{"city":"VEYO","lat":"37.42","long":"-113.72"},{"city":"VIRGIN","lat":"37.3","long":"-113.08"},{"city":"WALES","lat":"39.44","long":"-111.67"},{"city":"WALLSBURG","lat":"40.36","long":"-111.43"},{"city":"WASHINGTON","lat":"37.22","long":"-113.48"},{"city":"WELLINGTON","lat":"39.54","long":"-110.74"},{"city":"WELLSVILLE","lat":"41.62","long":"-111.93"},{"city":"WENDOVER","lat":"40.84","long":"-114.02"},{"city":"WEST JORDAN","lat":"40.59","long":"-112.03"},{"city":"WHITEROCKS","lat":"40.55","long":"-109.9"},{"city":"WILLARD","lat":"41.35","long":"-112.15"},{"city":"WOODRUFF","lat":"41.37","long":"-111.27"},{"city":"WOODS CROSS","lat":"40.89","long":"-111.93"}]